"Reference","Institution_Name","Address_1","Address_2","Address_3","Town_Name","County_Name","Postcode","Telephone","Email","Institution_Type","Management_Type","Latitude","Longitude","Irish_Grid_Reference_X","Irish_Grid_Reference_Y","Current_Approved_Enrolment","Current_Approved_Admissions","Latest_Year_Data","Primary_Reception_Pupil","Number_Year_1","Number_Year_2","Number_Year_3","Number_Year_4","Number_Year_5","Number_Year_6","Number_Year_7","Number_Year_8","Number_Year_9","Number_Year_10","Number_Year_11","Number_Year_12","Number_Year_13","Number_Year_14","Number_Year_15","Number_of_FTE_Staff","Pupil_Teacher_Ratio"
"1AB0427","174 Trust Playgroup","Duncairn Complex","1 Duncairn Avenue","","BELFAST","ANTRIM","BT14 6BP","9074 7114","kaokane@outlook.com","VP Pre-schools","Other","54.61253","-5.93645","333368","375771","","","2015","","","","","","","","","","","","","","","","","",""
"5420059","Abbey Christian Brothers Grammar School","77a Ashgrove Road","","","NEWRY","DOWN","BT34 2QN","028 3026 3142","info@abbey.newry.ni.sch.uk","Secondary (grammar) school","Voluntary","54.19349","-6.32846","309151","328458","850","125","2015","","","","","","","","","127","132","134","133","132","118","126","0","57.05","15.81"
"3210313","Abbey Community College","Bridge Road","Monkstown","","NEWTOWNABBEY","ANTRIM","BT37 0EA","9086 7431/9086 7432","info@abbeycommunitycollege.newtownabbey.ni.sch.uk","Secondary (non-grammar) school","Controlled","54.69015","-5.91848","334273","384444","820","140","2015","","","","","","","","","85","77","99","133","139","50","30","0","45.4","13.5"
"4016399","Abbey Primary School","90 MOVILLA ROAD","","","NEWTOWNARDS","DOWN","BT23 8RQ","028 9181 9141","info@abbeyprimary.newtownards.ni.sch.uk","Primary school","Controlled","54.59601","-5.66723","350820","374476","610","87","2015","0","78","67","82","83","84","75","81","","","","","","","","","23.2","24.83"
"3010862","Abbots Cross Primary School","86 DOAGH ROAD","","","NEWTOWNABBEY","ANTRIM","BT37 9QW","028 9086 4171","info@abbotscrossps.newtownabbey.ni.sch.uk","Primary school","Controlled","54.66801","-5.91408","334630","381988","523","75","2015","0","50","42","48","48","34","40","43","","","","","","","","","16","19.06"
"5011594","Abercorn Primary School","NEWRY ROAD","","","BANBRIDGE","DOWN","BT32 3HR","028 406 62880","info@abercorn.banbridge.ni.sch.uk","Primary school","Controlled","54.34449101","-6.274800943","312245","345349","434","60","2015","0","56","44","50","51","62","60","41","","","","","","","","","15.38","23.67"
"4016201","Academy Primary School","194 LISTOODER ROAD","","","SAINTFIELD","DOWN","BT24 7JA","028 9751 0407","info@academyps.ballynahinch.ni.sch.uk","Primary school","Controlled","54.45582","-5.83136","340695","358534","395","56","2015","0","55","53","55","54","56","47","58","","","","","","","","","15.69","25.75"
"3066568","Acorn Integrated Primary School","110 VICTORIA ROAD","","","CARRICKFERGUS","ANTRIM","BT38 7JL","028 9336 0115","info@acornintegratedps.carrickfergus.ni.sch.uk","Primary school","Grant Maintained Integrated","54.73025","-5.79689","341972","389146","203","29","2015","0","29","30","30","27","29","28","28","","","","","","","","","9.4","22.82"
"3AB0128","Aghadowey Pre-School Playgroup","32 Mullaghinch Road","","Aghadowey","COLERAINE","LONDONDERRY","BT51 4AP","07708584046 / 02870868892","","VP Pre-schools","Other","55.02852","-6.61896","288364","420995","","","2015","","","","","","","","","","","","","","","","","",""
"2011873","Aghadrumsee Primary School","14 AGHADRUMSEE ROAD","","","ENNISKILLEN","FERMANAGH","BT92 7AU","028 6775 1285","info@aghadrumseeps.enniskillen.ni.sch.uk","Primary school","Controlled","54.22984","-7.27745","247170","331454","81","12","2015","4","3","12","5","6","2","2","2","","","","","","","","","2.4","15"
"5BB0202","Aghagallon Pre-School","St Patricks Primary School","3 Aghalee Road","Aghagallon","CRAIGAVON","ARMAGH","BT67 0AR","7786494921","aghagallonpreschool@gmail.com","VP Pre-schools","Other","54.50933","-6.29315","310604","363666","","","2015","","","","","","","","","","","","","","","","","",""
"3AB0640","Ahoghill & District Community Pre-School Playgroup","58 Cardonaghy Road","","","BALLYMENA","ANTRIM","BT42 1EF","028 25 878198/ 075 1975 0850","","VP Pre-schools","Voluntary","54.86877","-6.36601","304954","403562","","","2015","","","","","","","","","","","","","","","","","",""
"4013046","Alexander Dickson Primary School","COMBER ROAD","BALLYGOWAN","","NEWTOWNARDS","DOWN","BT23 5TN","028 9752 8651","info@adps.newtownards.ni.sch.uk","Primary school","Controlled","54.50364","-5.78846","343309","363943","145","21","2015","0","17","9","16","8","13","15","14","","","","","","","","","4.57","20.11"
"4056541","All Childrens Integrated Primary School","3A King Street","","","NEWCASTLE","DOWN","BT33 0HD","028 4372 2098","info@allchildrensint.newcastle.ni.sch.uk","Primary school","Controlled Integrated","54.20117","-5.8931","337538","330072","203","29","2015","7","23","30","29","28","33","32","41","","","","","","","","","9.45","23.6"
"2036557","All Saints Primary School","42 TATTYSALLAGH ROAD","","","OMAGH","TYRONE","BT78 5BR","028 8224 3233","info@allsaints.omagh.ni.sch.uk","Primary school","Roman Catholic Maintained","54.56059","-7.40137","238776","368195","111","16","2015","6","12","20","14","16","16","8","10","","","","","","","","","5","20.4"
"3AB0353","Alphabet Playgroup","Community Centre","15a Glassillan Grove","","GREENISLAND","ANTRIM","BT38 8TE","9086 0851","","VP Pre-schools","Other","54.6975","-5.87108","337304","385353","","","2015","","","","","","","","","","","","","","","","","",""
"2032722","Altishane Primary School","139 DUNNYBOE ROAD","DUNAMANAGH","","STRABANE","TYRONE","BT82 0RE","028 7139 8054","info@altishaneps.strabane.ni.sch.uk","Primary school","Roman Catholic Maintained","54.83664","-7.28007","246308","398999","48","7","2015","0","0","1","4","2","2","5","3","","","","","","","","","2","8.5"
"3012234","Ampertaine Primary School","94 KILREA ROAD","UPPERLANDS","","MAGHERA","LONDONDERRY","BT46 5SB","028 7964 3741","info@ampertaineps.maghera.ni.sch.uk","Primary school","Controlled","54.88365","-6.63151","287877","404853","138","20","2015","0","21","18","20","18","18","16","15","","","","","","","","","5.4","23.33"
"4AB0431","Anahilt Pre-School Playgroup","29a West Winds Terrace","Anahilt","","HILLSBOROUGH","DOWN","BT26 6BS","9263 9489","anahiltplaygroup@hotmail.co.uk","VP Pre-schools","Other","54.43622","-5.99911","329879","356031","","","2015","","","","","","","","","","","","","","","","","",""
"4011608","Anahilt Primary School","248 BALLYNAHINCH ROAD","","","HILLSBOROUGH","DOWN","BT26 6BP","028 9263 8557","info@anahiltps.hillsborough.ni.sch.uk","Primary school","Controlled","54.43679","-6.00042","329792","356092","300","43","2015","0","18","19","19","29","9","14","15","","","","","","","","","5.78","21.28"
"3032257","Anahorish Primary School","120 DEERPARK ROAD","TOOMEBRIDGE","","ANTRIM","ANTRIM","BT41 3SS","028 7965 0825","info@anahorishps.antrim.ni.sch.uk","Primary school","Roman Catholic Maintained","54.76633","-6.50263","296427","391963","174","25","2015","0","28","22","22","28","25","24","33","","","","","","","","","8","22.75"
"5031146","Anamar Primary School","67 KILTYBANE ROAD","CROSSMAGLEN","","NEWRY","DOWN","BT35 9BH","028 3086 1515","info@anamar.crossmaglen.ni.sch.uk","Primary school","Roman Catholic Maintained","54.11035","-6.61837","290411","318795","91","13","2015","2","2","6","3","6","5","5","6","","","","","","","","","3","11.67"
"4016126","Andrews Memorial Primary School","4 BALLYGOWAN ROAD","COMBER","","NEWTOWNARDS","DOWN","BT23 5PG","028 9187 2075","info@andrewsmemorialps.newtownards.ni.sch.uk","Primary school","Controlled","54.54686","-5.75425","345371","368823","368","53","2015","0","45","53","45","47","47","45","56","","","","","","","","","14","24.14"
"5011684","Annalong Primary School","31 KILKEEL ROAD","","","NEWRY","DOWN","BT34 4TH","028 4376 8336","info@annalongps.annalong.ni.sch.uk","Primary school","Controlled","54.10725","-5.90284","337213","319601","185","26","2015","0","22","16","15","20","19","18","23","","","","","","","","","6.1","26.07"
"4053009","Annsborough Primary School","51 BALLYLOUGH ROAD","","","CASTLEWELLAN","DOWN","BT31 9NN","028 4377 8630","info@annsboroughinte.castlewellan.ni.sch.uk","Primary school","Controlled Integrated","54.26768","-5.92063","335524","337421","85","12","2015","0","6","5","5","5","9","4","8","","","","","","","","","3","14"
"3410209","Antrim Grammar School","10 STEEPLE ROAD","","","ANTRIM","ANTRIM","BT41 1AF","028 9446 4091","info@antrimgrammar.antrim.ni.sch.uk","Secondary (grammar) school","Controlled","54.72363","-6.21251","315220","387647","740","105","2015","","","","","","","","","105","105","109","115","105","110","89","0","45.9","16.08"
"3010829","Antrim Primary School","31 STATION ROAD","","","ANTRIM","ANTRIM","BT41 4AB","028 9442 8226","info@antrimps.antrim.ni.sch.uk","Primary school","Controlled","54.71678","-6.21577","315029","386880","600","86","2015","0","81","90","90","86","87","79","90","","","","","","","","","24.2","24.92"
"4BB0310","Apple Blossom Pre-School","St Joseph's Primary School","4 Ballynahinch Road","Crossgar","DOWNPATRICK","DOWN","BT30 9HS","4483 2770","glasswater.preschool@outlook.com","VP Pre-schools","Other","54.39775","-5.76448","345237","352208","","","2015","","","","","","","","","","","","","","","","","",""
"3CB0567","Appletree Childcare","37 - 39 Tirkeeran Road","","Garvagh","COLERAINE","LONDONDERRY","BT51 5AX","028 2955 7913","","VP Pre-schools","Other","54.96866","-6.70652","282888","414224","","","2015","","","","","","","","","","","","","","","","","",""
"1420277","Aquinas Diocesan Grammar School","518 RAVENHILL ROAD","","","BELFAST","ANTRIM","BT6 0BY","028 9064 3939","info@aquinas.belfast.ni.sch.uk","Secondary (grammar) school","Voluntary","54.57617","-5.90744","335363","371779","770","110","2015","","","","","","","","","118","116","118","118","113","108","108","12","53","15.3"
"4BB0158","Ardglass Community Playgroup","21 Downpatrick Road","","","ARDGLASS","DOWN","BT30 7SF","4484 2754","acp598@btconnect.com","VP Pre-schools","Other","54.26602","-5.61502","355438","337866","","","2015","","","","","","","","","","","","","","","","","",""
"4310019","Ardmore House Special School","95A SAUL STREET","","","DOWNPATRICK","DOWN","BT30 6NJ","028 4461 4881","info@ardmorespec.downpatrick.ni.sch.uk","Special school","Controlled","54.33057","-5.71065","348975","344844","","","2015","","","","","","","","","","","","","","","","","12","0.17"
"2316695","Ardnashee School and College","15 Racecourse Road","","","LONDONDERRY","LONDONDERRY","BT48 7RE","028 71351266 / 028 71263270","info@asc.lderry.ni.sch.uk","Special school","Controlled","55.01788","-7.31656","243766","419151","","","2015","","","","","","","","","","","","","","","","","40.2","6.75"
"2BB0444","Ardstraw Community Playgroup","11A Deerpark Road","Newtownstewart","","OMAGH","TYRONE","BT78 4LL","8166 2594 / 07857433495","","VP Pre-schools","Other","54.73214","-7.45286","235296","387265","","","2015","","","","","","","","","","","","","","","","","",""
"2016701","Ardstraw Jubilee Primary School","Deerpark Road","Newtownstewart","","OMAGH","TYRONE","BT78 4LA","02881 661504","info@ajps.ardstraw.ni.sch.uk","Primary school","Controlled","54.73214","-7.45286","235296","387265","108","15","2015","0","10","16","19","10","10","9","13","","","","","","","","","3.42","25.46"
"1110001","Arellian Nursery School","50 BENTHAM DRIVE","DONEGALL ROAD","","BELFAST","ANTRIM","BT12 5NS","028 9032 5280","info@arellianns.belfast.ni.sch.uk","Nursery school","Controlled","54.59053","-5.94569","332843","373305","","","2015","","","","","","","","","","","","","","","","","2","30"
"3AB0354","Armoy Cross Community Playgroup","12 Main Street","Armoy","","BALLYMONEY","ANTRIM","BT53 8RQ","2075 1989","","VP Pre-schools","Other","55.13109","-6.32632","306803","432821","","","2015","","","","","","","","","","","","","","","","","",""
"3016040","Armoy Primary School","2 GRACEHILL ROAD","ARMOY","","BALLYMONEY","ANTRIM","BT53 8TD","028 2075 1354","info@armoyps.ballymoney.ni.sch.uk","Primary school","Controlled","55.12789","-6.32796","306707","432462","116","17","2015","0","15","13","13","7","12","12","9","","","","","","","","","4.28","18.94"
"5011115","Armstrong Primary School","6 COLLEGE HILL","","","ARMAGH","ARMAGH","BT61 9DF","028 3752 3003","info@armstrong.armagh.ni.sch.uk","Primary school","Controlled","54.35171","-6.65128","287745","345618","443","63","2015","0","72","61","75","84","66","71","87","","","","","","","","","23.95","21.54"
"2016068","Artigarvan Primary School","31 BERRYHILL ROAD","","","STRABANE","TYRONE","BT82 0HN","028 7188 3684","info@artigarvanps.strabane.ni.sch.uk","Primary school","Controlled","54.85488","-7.41044","237914","400951","175","25","2015","0","21","17","20","19","19","9","12","","","","","","","","","6.4","20.31"
"2316661","Arvalee School and Resource Centre","17 DEVERNEY ROAD","","","OMAGH","TYRONE","BT79 0ND","028 8224 9182","info@asrc.omagh.ni.sch.uk","Special school","Controlled","54.59421","-7.25847","247981","372026","","","2015","","","","","","","","","","","","","","","","","19.04","6.17"
"1210015","Ashfield Boys' High School","395 HOLYWOOD ROAD","","","BELFAST","ANTRIM","BT4 2LY","028 9065 6812","info@ashfieldboys.belfast.ni.sch.uk","Secondary (non-grammar) school","Controlled","54.60831","-5.86252","338158","375444","600","110","2015","","","","","","","","","122","120","112","117","112","86","75","0","46.8","15.9"
"1210014","Ashfield Girls' High School","397 HOLYWOOD ROAD","","","BELFAST","ANTRIM","BT4 2LY","028 9047 1744","info@ashgirls.belfast.ni.sch.uk","Secondary (non-grammar) school","Controlled","54.6096","-5.86554","337959","375581","660","113","2015","","","","","","","","","115","118","110","112","113","72","63","1","43.91","16.03"
"3116214","Ashgrove Nursery School","57 ASHGROVE ROAD","CARNMONEY","","NEWTOWNABBEY","ANTRIM","BT36 6LJ","028 9084 3178","info@ashgrovens.carnmoney.ni.sch.uk","Nursery school","Controlled","54.67707","-5.95022","332269","382928","","","2015","","","","","","","","","","","","","","","","","2","26"
"5116112","Ashgrove Nursery School","23 CHESTNUT GROVE","","","NEWRY","DOWN","BT34 1JT","028 3026 3355","info@ashgrovens.newry.ni.sch.uk","Nursery school","Controlled","54.18765","-6.32456","309421","327814","","","2015","","","","","","","","","","","","","","","","","1.37","18.97"
"5AB0604","Ashgrove Pre-School Playgroup","157 Garvaghey Road","","","PORTADOWN","ARMAGH","BT62 1EZ","7723502028","","VP Pre-schools","Other","54.43219","-6.45427","300358","354838","","","2015","","","","","","","","","","","","","","","","","",""
"3016244","Ashgrove Primary School","ASHGROVE ROAD","","","NEWTOWNABBEY","ANTRIM","BT36 6LJ","028 9084 8734","info@ashgroveps.newtownabbey.ni.sch.uk","Primary school","Controlled","54.67753","-5.94897","332348","382981","374","53","2015","0","42","56","52","55","59","46","55","","","","","","","","","15.94","22.9"
"2016124","Ashlea Primary School","163 STEVENSON PARK","TULLYALLY","","LONDONDERRY","LONDONDERRY","BT47 3QT","028 7134 7950","info@ashlea.londonderry.ni.sch.uk","Primary school","Controlled","54.97365","-7.28592","245776","414247","230","33","2015","0","7","9","13","11","1","7","4","","","","","","","","","3.6","21.67"
"4420086","Assumption Grammar School","22-24 BELFAST ROAD","","","BALLYNAHINCH","DOWN","BT24 8EA","028 9756 2250","info@assumption.ballynahinch.ni.sch.uk","Secondary (grammar) school","Voluntary","54.40531","-5.8967","336626","352784","840","120","2015","","","","","","","","","120","122","125","120","120","109","109","11","53.3","15.68"
"5AB0232","Atticall Pre-School Playgroup","Atticall Community Centre","140 Tullyframe Road","Kilkeel","NEWRY","DOWN","BT34 4RZ","02841764031 / 07773917957","atticallplaygroup@outlook.com","VP Pre-schools","Other","54.10391","-6.06233","326793","318932","","","2015","","","","","","","","","","","","","","","","","",""
"5012635","Augher Central Primary School","17 KNOCKMANY ROAD","","","AUGHER","TYRONE","BT77 0BE","028 8554 8443","info@aughercentral.augher.ni.sch.uk","Primary school","Controlled","54.43229","-7.13576","256134","354093","100","16","2015","0","10","15","14","13","12","14","8","","","","","","","","","4.7","18.29"
"5210153","Aughnacloy High School","23 CARNTEEL ROAD","","","AUGHNACLOY","TYRONE","BT69 6DX","028 8555 7289","info@ahs.aughnacloy.ni.sch.uk","Secondary (non-grammar) school","Controlled","54.41909","-6.965","267237","352773","232","46","2015","","","","","","","","","38","23","38","17","37","0","0","0","13.31","11.49"
"5AB0233","Aughnacloy Playgroup Ltd","Unit 1","12B Carnteel Road","Aughnacloy","DUNGANNON","TYRONE","BT69 6DU","0288555 7996","aughnacloyplaygroup@hotmail.co.uk","VP Pre-schools","Other","54.41801","-6.97037","266890","352647","","","2015","","","","","","","","","","","","","","","","","",""
"5012621","Aughnacloy Primary School","1 CARNTEEL ROAD","","","AUGHNACLOY","TYRONE","BT69 6DU","028 8555 7316","info@aughnacloyps.aughnacloy.ni.sch.uk","Primary school","Controlled","54.41641","-6.97006","266913","352470","116","17","2015","0","18","19","19","21","17","23","20","","","","","","","","","6","22.83"
"3AB0568","Ballee pre-School Playgroup","20 Antrim Road","","","BALLYMENA","ANTRIM","BT42 2BJ","25638628","","VP Pre-schools","Other","54.85359","-6.27464","310861","402013","","","2015","","","","","","","","","","","","","","","","","",""
"2011893","Ballinamallard Primary School","19 BARAGH ROAD","BALLINAMALLARD","","ENNISKILLEN","FERMANAGH","BT94 2NY","028 6638 8262","info@ballinamallardps.enniskillen.ni.sch.uk","Primary school","Controlled","54.42414","-7.59608","226267","352916","198","28","2015","0","20","17","22","22","21","18","24","","","","","","","","","7.62","20.41"
"3AB0101","Ballinascreen Early Years","The Business Park","Tobermore Rd","Draperstown","MAGHERAFELT","LONDONDERRY","BT45 7AG","7962 7303","","VP Pre-schools","Other","54.79559","-6.7815","278422","394872","","","2015","","","","","","","","","","","","","","","","","",""
"5AB0217","Ballinderry Playgroup","Ballinderry Parochial Centre","Ballinderry Bridge Road","Coagh","COOKSTOWN","TYRONE","BT80 0AY","7811751389","ballinderryplaygroup@btconnect.com","VP Pre-schools","Other","54.66954","-6.54657","293822","381129","","","2015","","","","","","","","","","","","","","","","","",""
"4016202","Ballinderry Primary School","8D CRUMLIN ROAD","BALLINDERRY","","LISBURN","ANTRIM","BT28 2BF","028 9265 1633","info@ballinderryps.lisburn.ni.sch.uk","Primary school","Controlled","54.54562","-6.25691","312851","367762","261","37","2015","0","29","34","38","27","30","25","21","","","","","","","","","10.02","21.66"
"2012095","Ballougry Primary School","30A MULLENAN ROAD","","","LONDONDERRY","LONDONDERRY","BT48 9XN","028 7126 3177","info@ballougryps.londonderry.ni.sch.uk","Primary school","Controlled","54.97118","-7.38495","239437","413912","84","12","2015","0","6","11","17","14","16","3","12","","","","","","","","","3","26.33"
"4AB0151","Ballybeen Women's Centre Pre-School","34 Ballybeen Square","Dundonald","","BELFAST","ANTRIM","BT16 2QE","9048 1632","linda@ballybeenwomenscentre.org","VP Pre-schools","Other","54.59088","-5.79129","342821","373646","","","2015","","","","","","","","","","","","","","","","","",""
"4010720","Ballycarrickmaddy Primary School","1A KILLULTAGH ROAD","BALLINDERRY UPPER","","LISBURN","ANTRIM","BT28 2NX","028 9264 8360","info@ballycarrickmaddyps.lisburn.ni.sch.uk","Primary school","Controlled","54.55026","-6.14451","320111","368465","203","29","2015","0","29","31","17","25","23","25","28","","","","","","","","","6.73","26.43"
"3AB0116","Ballycarry Playgroup","Old Presbyterian Church Hall","57 Main Street","Ballycarry","CARRICKFERGUS","ANTRIM","BT38 9HG","O7759315119 / 02893378275","","VP Pre-schools","Other","54.77188","-5.75148","344748","393872","","","2015","","","","","","","","","","","","","","","","","",""
"3010809","Ballycarry Primary School","23 HILLHEAD ROAD","BALLYCARRY","","CARRICKFERGUS","ANTRIM","BT38 9HE","028 9335 3706","info@ballycarryps.carrickfergus.ni.sch.uk","Primary school","Controlled","54.77627","-5.75245","344670","394358","116","17","2015","0","13","10","9","5","9","16","10","","","","","","","","","2.56","28.17"
"3210124","Ballycastle High School","33 RATHLIN ROAD","","","BALLYCASTLE","ANTRIM","BT54 6LD","028 2076 2254","info@ballycastlehigh.ballycastle.ni.sch.uk","Secondary (non-grammar) school","Controlled","55.20399","-6.24967","311488","441055","460","92","2015","","","","","","","","","58","60","66","70","59","49","49","0","27.63","14.87"
"3053333","Ballycastle Integrated Primary School","43 QUAY ROAD","","","BALLYCASTLE","ANTRIM","BT54 6BJ","028 2076 2496","info@ballycastleips.ballycastle.ni.sch.uk","Primary school","Controlled Integrated","55.20358","-6.24199","311978","441022","158","23","2015","0","29","24","24","30","21","25","23","","","","","","","","","9.01","22.54"
"3410008","Ballyclare High School","31 RASHEE ROAD","","","BALLYCLARE","ANTRIM","BT39 9HJ","028 9332 2244","info@ballyclarehigh.ballyclare.ni.sch.uk","Secondary (grammar) school","Controlled","54.75463","-6.00355","328584","391461","1210","186","2015","","","","","","","","","188","187","187","185","186","142","150","0","77.08","15.89"
"3116220","Ballyclare Nursery School","GRANGE DRIVE","","","BALLYCLARE","ANTRIM","BT39 9EY","028 9335 2982","info@ballyclarens.ballyclare.ni.sch.uk","Nursery school","Controlled","54.75323","-6.0125","328012","391289","","","2015","","","","","","","","","","","","","","","","","4.11","18.97"
"3010631","Ballyclare Primary School","DOAGH ROAD","","","BALLYCLARE","ANTRIM","BT39 9BG","028 9332 2389","info@ballyclareps.ballyclare.ni.sch.uk","Primary school","Controlled","54.75168","-6.00229","328674","391135","572","82","2015","0","71","65","86","74","78","58","63","","","","","","","","","19.4","25.52"
"3210134","Ballyclare Secondary School","19 DOAGH ROAD","","","BALLYCLARE","ANTRIM","BT39 9BG","028 93322610","info@ballyclaresec.ballyclare.ni.sch.uk","Secondary (non-grammar) school","Controlled","54.7504","-6.00279","328646","390991","960","180","2015","","","","","","","","","183","182","182","165","176","81","53","0","74.63","13.69"
"3013331","Ballycraigy Primary School","22 BRACKEN AVENUE","MUCKAMORE","","ANTRIM","ANTRIM","BT41 1PU","028 9446 2450","info@ballycraigyps.antrim.ni.sch.uk","Primary school","Controlled","54.70699","-6.18977","316733","385833","326","47","2015","0","24","21","21","24","16","20","17","","","","","","","","","8.3","17.23"
"4AB0171","Ballycrochan Playgroup","Ballycrochan Presbyterian Church","Silverbirch Road","","BANGOR","DOWN","BT19 6EU","9127 0040 / 07734889657","micheleroberts2000@gmail.com","VP Pre-schools","Other","54.65186","-5.63399","352758","380764","","","2015","","","","","","","","","","","","","","","","","",""
"5011617","Ballydown Primary School","64 LISNAREE ROAD","","","BANBRIDGE","DOWN","BT32 4JN","028 4066 2738","info@ballydown.banbridge.ni.sch.uk","Primary school","Controlled","54.3433","-6.23255","314993","345283","319","45","2015","0","43","46","43","45","44","46","45","","","","","","","","","13.4","25.22"
"5AB0205","Ballygawley Early Years","Fairfield House Playing Fields","95 Main Street","","BALLYGAWLEY","TYRONE","BT70 2HD","0288556 7411","ballygawleyearlyyears@hotmail.com","VP Pre-schools","Other","54.46082","-7.03081","262901","357357","","","2015","","","","","","","","","","","","","","","","","",""
"4BB0167","Ballygowan Community Playgroup","Alexander Dickson Primary School","Comber Road","Ballygowan","NEWTOWNARDS","DOWN","BT23 5TN","7845158223","ballygowancommunityplaygroup@hotmail.co.uk","VP Pre-schools","Other","54.50364","-5.78846","343309","363943","","","2015","","","","","","","","","","","","","","","","","",""
"3032104","Ballyhackett Primary School","50 ALTIKEERAGH ROAD","CASTLEROCK","","COLERAINE","LONDONDERRY","BT51 4SR","028 7084 8476","info@ballyhackettps.castlerock.ni.sch.uk","Primary school","Roman Catholic Maintained","55.13868","-6.81702","275491","433025","67","10","2015","1","6","5","2","6","10","6","5","","","","","","","","","3","13.67"
"3116166","Ballyhenry Nursery School","GLENVARNA COURT","","","NEWTOWNABBEY","ANTRIM","BT36 5JD","028 9083 3884","info@ballyhenryns.glengormley.ni.sch.uk","Nursery school","Controlled","54.67917","-5.96781","331128","383128","","","2015","","","","","","","","","","","","","","","","","2","26.5"
"3016170","Ballyhenry Primary School","BALLYHENRY AVENUE","GLENGORMLEY","","NEWTOWNABBEY","ANTRIM","BT36 5AZ","028 9084 1316","info@ballyhenryps.newtownabbey.ni.sch.uk","Primary school","Controlled","54.67977","-5.96866","331071","383193","317","45","2015","0","22","25","29","19","21","18","23","","","","","","","","","8","19.63"
"5031558","Ballyholland Primary School","60 BETTYS HILL ROAD","","","NEWRY","DOWN","BT34 2ND","028 3026 3763","info@ballyholland.newry.ni.sch.uk","Primary school","Roman Catholic Maintained","54.15413","-6.29348","311540","324131","244","30","2015","0","32","32","30","42","24","35","34","","","","","","","","","8.93","25.66"
"4AB0275","Ballyholme Presbyterian Church Playgroup","Ballyholme Presbyterian Church","GLENBURN PARK","","BANGOR","DOWN","BT20 5RD","9145 2796","bpchpreschool@btinternet.com","VP Pre-schools","Other","54.66252","-5.6395","352363","381938","","","2015","","","","","","","","","","","","","","","","","",""
"4011650","Ballyholme Primary School","GLENBURN PARK","","","BANGOR","DOWN","BT20 5RG","028 9127 0392","info@ballyholmeps.bangor.ni.sch.uk","Primary school","Controlled","54.66313","-5.63886","352402","382007","630","90","2015","0","90","92","91","89","90","91","88","","","","","","","","","25.45","24.79"
"3013315","Ballykeel Primary School","22 CREBILLY ROAD","","","BALLYMENA","ANTRIM","BT42 4DN","028 2565 3902","info@ballykeelps.ballymena.ni.sch.uk","Primary school","Controlled","54.85935","-6.25591","312048","402684","406","58","2015","0","51","58","53","59","55","49","53","","","","","","","","","21.1","20.38"
"2012298","Ballykelly Primary School","8 GLENHEAD ROAD","BALLYKELLY","","LIMAVADY","LONDONDERRY","BT49 9JS","028 7776 2864","info@ballykelly.limavady.ni.sch.uk","Primary school","Controlled","55.04296","-7.01616","262942","422172","586","84","2015","0","39","38","48","47","40","31","32","","","","","","","","","14.6","20.96"
"4AB0374","Ballykinlar Cross Community Preschool","The Playing Fields","27 Marion Park","BALLYKINLAR","DOWNPATRICK","DOWN","BT30 8DJ","4485 1989","stephaniemurray1@aol.com","VP Pre-schools","Other","54.25647","-5.79357","343840","336425","","","2015","","","","","","","","","","","","","","","","","",""
"5032208","Ballylifford Primary School","142 BALLINDERRY BRIDGE ROAD","","","COOKSTOWN","TYRONE","BT80 0AY","028 7941 8388","info@ballylifford.cookstown.ni.sch.uk","Primary school","Roman Catholic Maintained","54.66968","-6.54753","293760","381144","93","13","2015","0","7","14","14","6","8","7","11","","","","","","","","","3.31","20.25"
"4016441","Ballymacash Primary School","16 BROKERSTOWN ROAD","","","LISBURN","ANTRIM","BT28 2EE","028 9266 4244","info@ballymacashps.lisburn.ni.sch.uk","Primary school","Controlled","54.52508","-6.08215","324222","365771","350","54","2015","0","57","53","55","57","50","53","48","","","","","","","","","14.26","27.85"
"4030823","Ballymacrickett Primary School","44 SCROGGY ROAD","GLENAVY","","CRUMLIN","ANTRIM","BT29 4NE","028 9442 2708","info@ballymacrickettps.lisburn.ni.sch.uk","Primary school","Roman Catholic Maintained","54.5782","-6.22423","314874","371441","370","58","2015","0","60","55","44","52","50","51","43","","","","","","","","","16.14","23.6"
"4BB0173","Ballymacward Pre-School Playgroup","Ballymacward Primary School","22 Rock Road","Stoneyford","LISBURN","ANTRIM","BT28 3SU","2892648515","","VP Pre-schools","Other","54.58002","-6.10589","322520","371844","","","2015","","","","","","","","","","","","","","","","","",""
"4030573","Ballymacward Primary School","22 ROCK ROAD","","","LISBURN","ANTRIM","BT28 3SU","028 9264 8130","info@ballymacwardps.lisburn.ni.sch.uk","Primary school","Roman Catholic Maintained","54.58002","-6.10589","322520","371844","145","21","2015","0","14","6","9","11","6","11","7","","","","","","","","","4","16"
"4016430","Ballymagee Primary School","77 ASHBURY AVENUE","","","BANGOR","DOWN","BT19 6ZG","028 9147 2324","info@ballymagee.bangor.ni.sch.uk","Primary school","Controlled","54.64566","-5.63473","352734","380072","406","58","2015","0","58","58","59","60","60","56","55","","","","","","","","","16.52","25.37"
"3420011","Ballymena Academy","89 GALGORM ROAD","","","BALLYMENA","ANTRIM","BT42 1AJ","028 2565 2782","info@balacademy.ballymena.ni.sch.uk","Secondary (grammar) school","Voluntary","54.86499","-6.29292","309656","403253","1200","176","2015","","","","","","","","","177","174","179","178","177","175","165","0","77.12","15.88"
"3110037","Ballymena Nursery School","TROSTAN AVENUE","THE DEMESNE","","BALLYMENA","ANTRIM","BT43 7BL","028 2565 2011","info@ballymenans.ballymena.ni.sch.uk","Nursery school","Controlled","54.86246","-6.26794","311267","403011","","","2015","","","","","","","","","","","","","","","","","2.5","20.8"
"3010875","Ballymena Primary School","101 BALLYMONEY ROAD","","","BALLYMENA","ANTRIM","BT43 5BX","028 2565 6082","info@ballymenaps.ballymena.ni.sch.uk","Primary school","Controlled","54.87066","-6.2817","310361","403902","369","53","2015","0","41","39","41","46","48","41","43","","","","","","","","","11.4","26.23"
"3AB0355","Ballymoney & District Community Playgroup","Trinity Church Hall","Rodeing Foot","","BALLYMONEY","ANTRIM","BT53 6BY","7784504363","","VP Pre-schools","Other","55.071","-6.50887","295303","425868","","","2015","","","","","","","","","","","","","","","","","",""
"3050866","Ballymoney Controlled Integrated Primary School","23 NORTH ROAD","","","BALLYMONEY","ANTRIM","BT53 6BW","028 2766 2340","info@ballymoneymodelcips.ballymoney.ni.sch.uk","Primary school","Controlled Integrated","55.07209","-6.52423","294319","425968","414","59","2015","0","66","53","60","55","46","26","48","","","","","","","","","16.62","21.3"
"3210133","Ballymoney High School","17 GARRYDUFF ROAD","","","BALLYMONEY","ANTRIM","BT53 7AN","028 2766 2361","info@ballymoneyhigh.ballymoney.ni.sch.uk","Secondary (non-grammar) school","Controlled","55.06822","-6.5033","295665","425566","670","130","2015","","","","","","","","","127","123","125","144","130","0","0","0","45.33","14.32"
"3116034","Ballymoney Nursery School","NORTH ROAD","","","BALLYMONEY","ANTRIM","BT53 6BW","028 2766 4367","info@ballymoneyns.ballymoney.ni.sch.uk","Nursery school","Controlled","55.07225","-6.52333","294376","425988","","","2015","","","","","","","","","","","","","","","","","2.46","21.11"
"4011567","Ballynahinch Primary School","CROOB PARK","","","BALLYNAHINCH","DOWN","BT24 8BB","028 9756 3171","info@ballynahinchps.ballynahinch.ni.sch.uk","Primary school","Controlled","54.3991","-5.90373","336190","352080","438","60","2015","0","23","27","32","34","22","28","32","","","","","","","","","10.6","21.13"
"3010802","Ballynure Primary School","2 LISMENARY ROAD","BALLYNURE","","BALLYCLARE","ANTRIM","BT39 9UE","028 9332 3113","info@ballynureps.ballynure.ni.sch.uk","Primary school","Controlled","54.77371","-5.95419","331699","393676","154","22","2015","0","22","19","20","22","16","19","15","","","","","","","","","7","19"
"5016117","Ballyoran Primary School","BALLYORAN PARK","","","PORTADOWN","ARMAGH","BT62 1JY","028 3835 2009","info@ballyoran.portadown.ni.sch.uk","Primary school","Controlled","54.43281","-6.4525","300471","354910","400","57","2015","0","18","40","29","39","31","22","21","","","","","","","","","13.6","18.53"
"3AB0264","Ballyronan Community Playgroup","Marine Centre","135 Shore Road","Ballyronan","MAGHERAFELT","LONDONDERRY","BT45 6JA","7941 8185 / 02886737346","","VP Pre-schools","Other","54.70916","-6.52962","294823","385562","","","2015","","","","","","","","","","","","","","","","","",""
"3116263","Ballysally Nursery School","BALLYSALLY LANE","BALLYSALLY ESTATE","","COLERAINE","LONDONDERRY","BT52 2QA","028 7035 4787","info@ballysallyns.coleraine.ni.sch.uk","Nursery school","Controlled","55.14988","-6.66046","285451","434453","","","2015","","","","","","","","","","","","","","","","","2","26"
"3016252","Ballysally Primary School","DANE'S HILL ROAD","","","COLERAINE","LONDONDERRY","BT52 2QU","028 7035 2962","info@ballysallyps.coleraine.ni.sch.uk","Primary school","Controlled","55.14639","-6.66074","285441","434064","304","43","2015","0","44","32","46","29","31","30","32","","","","","","","","","16","15.25"
"1016076","Ballysillan Primary School","BALLYSILLAN PARK","","","BELFAST","ANTRIM","BT14 8LT","028 9039 1668","info@ballysillan.belfast.ni.sch.uk","Primary school","Controlled","54.63236","-5.96992","331142","377914","290","41","2015","0","27","24","23","16","20","11","23","","","","","","","","","7.6","22.37"
"3010892","Ballytober Primary School","60 PRIESTLAND ROAD","","","BUSHMILLS","ANTRIM","BT57 8UR","028 2073 1404","info@ballytoberps.bushmills.ni.sch.uk","Primary school","Controlled","55.1852","-6.55429","292138","438520","87","12","2015","0","14","4","15","9","11","18","10","","","","","","","","","3.6","22.5"
"5012615","Ballytrea Primary School","52 GORTNASKEA ROAD","STEWARTSTOWN","","DUNGANNON","TYRONE","BT71 5NY","028 8773 8619","info@ballytrea.stewartstown.ni.sch.uk","Primary school","Controlled","54.61112","-6.65606","286883","374486","143","20","2015","1","8","10","14","10","13","11","12","","","","","","","","","4.4","17.96"
"4011265","Ballyvester Primary School","244 KILLAUGHEY ROAD","","","DONAGHADEE","DOWN","BT21 0NF","028 9188 2121","info@ballyvesterps.donaghadee.ni.sch.uk","Primary school","Controlled","54.62597","-5.55909","357692","378048","109","16","2015","0","16","16","19","23","20","12","10","","","","","","","","","5.4","21.48"
"4BB0432","Ballywalter Pre-School Unit","C/O Ballywalter Primary School","12 Stump Road","BALLYWALTER","NEWTOWNARDS","DOWN","BT22 2NT","7776204936","","VP Pre-schools","Other","54.54533","-5.48737","362644","369237","","","2015","","","","","","","","","","","","","","","","","",""
"4011566","Ballywalter Primary School","12 STUMP ROAD","BALLYWALTER","","NEWTOWNARDS","DOWN","BT22 2NT","028 4275 8486","info@ballywalterps.newtownards.ni.sch.uk","Primary school","Controlled","54.54533","-5.48737","362644","369237","199","28","2015","0","27","24","24","27","23","18","26","","","","","","","","","8","21.13"
"3016447","Balnamore Primary School","80 BALNAMORE ROAD","","","BALLYMONEY","ANTRIM","BT53 7PT","028 2766 4564","info@balnamoreps.ballymoney.ni.sch.uk","Primary school","Controlled","55.06492","-6.56349","291828","425118","111","16","2015","0","12","14","12","15","16","20","14","","","","","","","","","5.28","19.51"
"2AB0299","Banagher Community Playgroup","4a Beechmount","","","FEENY","LONDONDERRY","BT47 4TZ","2877781769","","VP Pre-schools","Other","54.89287","-7.02161","262827","405459","","","2015","","","","","","","","","","","","","","","","","",""
"3AB0106","Banana Bunch Playgroup","Whitehead Presbyterian Church Hall","8 Kings Road","Whitehead","CARRICKFERGUS","ANTRIM","BT38 9PU","07749623945 / 07707321817","","VP Pre-schools","Other","54.75353","-5.71312","347283","391910","","","2015","","","","","","","","","","","","","","","","","",""
"5410013","Banbridge Academy","LURGAN ROAD","","","BANBRIDGE","DOWN","BT32 4AQ","028 4062 3220","info@banbridgeacademy.banbridge.ni.sch.uk","Secondary (grammar) school","Controlled","54.35685","-6.2707","312475","346730","1320","184","2015","","","","","","","","","187","189","195","193","184","201","171","0","77.22","17.09"
"5210047","Banbridge High School","69A PRIMROSE GARDENS","","","BANBRIDGE","DOWN","BT32 3EW","028 4062 2471","info@banbridgehigh.banbridge.ni.sch.uk","Secondary (non-grammar) school","Controlled","54.34497","-6.27792","312038","345396","680","136","2015","","","","","","","","","76","74","78","90","95","56","34","0","40.81","12.33"
"5116238","Banbridge Nursery School","3A LURGAN ROAD","","","BANBRIDGE","DOWN","BT32 4AF","028 4062 3138","info@banbridgens.banbridge.ni.sch.uk","Nursery school","Controlled","54.35565","-6.26825","312638","346600","","","2015","","","","","","","","","","","","","","","","","2","26"
"4AB0472","Bangor Abbey Pre-School Centre","Temporary Accommodation","Rooms 18/19 Clandeboye PS","Clandeboye Road","BANGOR","DOWN","BT20 3JW","7518433402","","VP Pre-schools","Other","54.65172","-5.6817","349680","380645","","","2015","","","","","","","","","","","","","","","","","",""
"4210296","Bangor Academy and 6th Form College","2 Castle Park Road","","","BANGOR","DOWN","BT20 4TB","028 9127 0535","info@bangoracademy.bangor.ni.sch.uk","Secondary (non-grammar) school","Controlled","54.65724","-5.66469","350757","381296","1420","242","2015","","","","","","","","","249","243","211","220","236","184","129","11","90.84","16.32"
"4051680","Bangor Central Integrated Primary School","6 CASTLE PARK ROAD","","","BANGOR","DOWN","BT20 4TF","028 9146 0513","info@bangorcips.bangor.ni.sch.uk","Primary school","Controlled Integrated","54.65818","-5.66693","350609","381396","618","88","2015","0","88","87","87","85","86","84","85","","","","","","","","","24.89","24.19"
"4110029","Bangor Central Nursery School","4 Castle Park Road","","","BANGOR","DOWN","BT20 4TF","028 9146 9241","info@bangorns.bangor.ni.sch.uk","Nursery school","Controlled","54.65856","-5.66741","350577","381437","","","2015","","","","","","","","","","","","","","","","","2","26.25"
"4420015","Bangor Grammar School","Gransha Road","","","BANGOR","DOWN","BT19 7QU","028 9147 3734","info@bgs.bangor.ni.sch.uk","Secondary (grammar) school","Voluntary","54.64262","-5.64773","351906","379706","850","125","2015","","","","","","","","","129","129","141","128","135","114","98","0","52.2","16.74"
"4AB0164","Bangor West Nursery Playgroup","West Church Halls","Rathmore Road","","BANGOR","DOWN","BT19 1DF","9147 0664","","VP Pre-schools","Other","54.66011","-5.70287","348283","381534","","","2015","","","","","","","","","","","","","","","","","",""
"4116018","Barbour Nursery School","73 ASHMOUNT GARDENS","","","LISBURN","ANTRIM","BT27 5BZ","028 9260 1796","info@barbourns.lisburn.ni.sch.uk","Nursery school","Controlled","54.51173","-6.02837","327745","364381","","","2015","","","","","","","","","","","","","","","","","2","26"
"3030800","Barnish Primary School","100 CUSHENDALL ROAD","","","BALLYCASTLE","ANTRIM","BT54 6QY","028 2076 2495","info@barnishps.ballycastle.ni.sch.uk","Primary school","Roman Catholic Maintained","55.20007","-6.18979","315311","440717","115","16","2015","0","6","4","7","4","13","7","12","","","","","","","","","3","17.67"
"5AB0505","Beacon Playgroup","52 Milburn Close","","","COOKSTOWN","TYRONE","BT80 8HF","0288676 2787","alicestewart1@hotmail.co.uk","VP Pre-schools","Other","54.65094","-6.75227","280588","378804","","","2015","","","","","","","","","","","","","","","","","",""
"4310008","Beechlawn Special School","3 DROMORE ROAD","","","HILLSBOROUGH","DOWN","BT26 6PA","028 9268 2302","info@beechlawnss.hillsborough.ni.sch.uk","Special school","Controlled","54.4585","-6.08623","324159","358353","","","2015","","","","","","","","","","","","","","","","","23.6","7.71"
"4AB0433","Bees Nees Early Years Centre","8a Glenard Road","Glen Estate","","NEWTOWNARDS","DOWN","BT23 4HS","9182 1220","","VP Pre-schools","Other","54.5992","-5.69927","348738","374763","","","2015","","","","","","","","","","","","","","","","","",""
"2AB0320","Belcoo Playgroup","Community Centre","Garrison Road","Belcoo","ENNISKILLEN","FERMANAGH","BT93 5DS","2866386314","","VP Pre-schools","Other","54.30158","-7.87875","207942","339205","","","2015","","","","","","","","","","","","","","","","","",""
"1210022","Belfast Boys' Model School","BALLYSILLAN ROAD","","","BELFAST","ANTRIM","BT14 6RB","028 9039 1156","info@bbms.belfast.ni.sch.uk","Secondary (non-grammar) school","Controlled","54.63248","-5.96157","331681","377944","905","151","2015","","","","","","","","","170","154","165","149","156","100","74","0","71.98","13.45"
"3420077","Belfast High School","740 SHORE ROAD","","","NEWTOWNABBEY","ANTRIM","BT37 0PX","028 9086 4431","info@belfasthigh.newtownabbey.ni.sch.uk","Secondary (grammar) school","Voluntary","54.68683","-5.87643","336995","384155","930","136","2015","","","","","","","","","137","136","136","140","141","117","110","0","57.7","15.89"
"1210021","Belfast Model School For Girls","35 Dunowen Gardens","","","BELFAST","ANTRIM","BT14 6NQ","02890 718111","info@girlsmodel.belfast.ni.sch.uk","Secondary (non-grammar) school","Controlled","54.62444","-5.95533","332110","377060","950","160","2015","","","","","","","","","165","133","115","159","136","112","87","3","64.38","14.14"
"1420028","Belfast Royal Academy","5-17 CLIFTONVILLE ROAD","","","BELFAST","ANTRIM","BT14 6JL","028 9075 0610","info@bfsra.belfast.ni.sch.uk","Secondary (grammar) school","Voluntary","54.61479","-5.93908","333191","376017","1410","200","2015","","","","","","","","","202","208","206","207","215","192","170","0","82.92","16.88"
"3012290","Bellaghy Primary School","79 WILLIAM STREET","BELLAGHY","","MAGHERAFELT","LONDONDERRY","BT45 8HZ","028 7938 6419","info@bellaghyps.magherafelt.ni.sch.uk","Primary school","Controlled","54.81133","-6.5142","295576","396956","115","16","2015","0","10","10","8","6","13","3","6","","","","","","","","","4","14"
"2012087","Bellarena Primary School","260 SEACOAST ROAD","","","LIMAVADY","LONDONDERRY","BT49 0JB","028 7775 0364","info@bellarenaps.limavady.ni.sch.uk","Primary school","Controlled","55.11761","-6.95377","266806","430541","74","11","2015","0","2","4","5","6","6","11","5","","","","","","","","","2","19.5"
"2AB0319","Belleek Pre-School Playgroup","Stepping Stones Centre","Station Road","","BELLEEK","FERMANAGH","BT93 3FY","6865 9929","","VP Pre-schools","Other","54.47978","-8.09047","194184","359038","","","2015","","","","","","","","","","","","","","","","","",""
"2011860","Belleek(2) Primary School","CORRY","BELLEEK","","ENNISKILLEN","FERMANAGH","BT93 3EZ","028 686 58211","info@belleekps.belleek.ni.sch.uk","Primary school","Controlled","54.47058","-8.0956","193850","358015","46","7","2015","3","1","3","5","2","6","5","9","","","","","","","","","2.4","14.17"
"2116345","Belmont Nursery School","19B RACECOURSE ROAD","","","LONDONDERRY","LONDONDERRY","BT48 8NF","028 7126 6241","info@belmontnurseryschool.co.uk","Nursery school","Controlled","55.01799","-7.31897","243612","419162","","","2015","","","","","","","","","","","","","","","","","2","27.5"
"1BB0494","Belmont Playcare","215 Belmont Road","","","BELFAST","ANTRIM","BT4 2DG","2890671050","info@belmontplaygroup.org","VP Pre-schools","Other","54.59878","-5.86641","337939","374375","","","2015","","","","","","","","","","","","","","","","","",""
"1010012","Belmont Primary School","215 BELMONT ROAD","","","BELFAST","ANTRIM","BT4 2AG","028 9047 1539","info@belmont.belfast.ni.sch.uk","Primary school","Controlled","54.59878","-5.86641","337939","374375","252","84","2015","0","84","85","85","0","0","0","0","","","","","","","","","10.8","23.52"
"4013013","Belvoir Park Primary School","BELVOIR DRIVE","","","BELFAST","ANTRIM","BT8 7DL","028 9049 1810","info@belvoirps.belfast.ni.sch.uk","Primary school","Controlled","54.55143","-5.93096","333923","368981","370","53","2015","0","38","41","31","38","44","33","29","","","","","","","","","17.86","17.13"
"1620028","Ben Madigan Preparatory School","690 ANTRIM ROAD","","","BELFAST","ANTRIM","BT15 5GP","028 90771139","info@benmadigan.belfast.ni.sch.uk","Preparatory Schools","Voluntary","54.64413","-5.93679","333243","379287","","","2015","0","24","17","20","19","24","20","18","","","","","","","","","8","17.75"
"5AB0406","Benburb Community Playgroup","3 Drumgoose Road","Benburb","","DUNGANNON","TYRONE","BT71 7JT","3754 9501","benburb@btconnect.com","VP Pre-schools","Other","54.4143","-6.74519","281515","352471","","","2015","","","","","","","","","","","","","","","","","",""
"1BB0024","Benmore Playgroup","C/O Finaghy Primary Campus","38 Finaghy Road South","","BELFAST","ANTRIM","BT10 0DR","2890308677","benmoreplaygroup@yahoo.co.uk","VP Pre-schools","Other","54.55943","-5.98179","330609","369776","","","2015","","","","","","","","","","","","","","","","","",""
"5011179","Bessbrook Primary School","14 CHURCH ROAD","","","NEWRY","DOWN","BT35 7AQ","028 3083 8002","info@bessbrookps.bessbrook.ni.sch.uk","Primary school","Controlled","54.19491","-6.39713","304666","328512","145","21","2015","0","12","11","10","10","10","10","11","","","","","","","","","4.4","22.73"
"1130027","Bethlehem Nursery School","516 RAVENHILL ROAD","","","BELFAST","ANTRIM","BT6 0BW","028 9064 0406","info@bethlehemns.belfast.ni.sch.uk","Nursery school","Roman Catholic Maintained","54.5788","-5.9105","335156","372066","","","2015","","","","","","","","","","","","","","","","","2","26"
"4CA0616","Big Red Balloon Day Nursery","64 Broadway","","","BANGOR","DOWN","BT20 4RG","2891471147","","VP Pre-schools","Other","54.65836","-5.65631","351294","381439","","","2015","","","","","","","","","","","","","","","","","",""
"5011174","Birches Primary School","14 CLONMAKATE ROAD","PORTADOWN","","CRAIGAVON","ARMAGH","BT62 1LR","028 388 51443","info@birches.portadown.ni.sch.uk","Primary school","Controlled","54.48833","-6.54945","294053","360956","161","23","2015","0","28","21","25","30","26","19","18","","","","","","","","","7","23.86"
"1016059","Blackmountain Primary School","BLACK MOUNTAIN PLACE","","","BELFAST","ANTRIM","BT13 3TT","028 9032 6086","info@blackmountain.belfast.ni.sch.uk","Primary school","Controlled","54.6008","-5.97868","330678","374386","280","40","2015","0","18","22","23","26","20","10","24","","","","","","","","","12.4","13.63"
"4260309","Blackwater Integrated College","12 Old Belfast Road","Downpatrick","","DOWNPATRICK","DOWN","BT30 6SG","02844 612115","info@blackwateric.downpatrick.ni.sch.uk","Secondary (non-grammar) school","Grant Maintained Integrated","54.33884","-5.71559","348624","345753","400","80","2015","","","","","","","","","42","30","47","42","52","0","0","0","20.39","10.45"
"5011602","Bleary Primary School","6 DEAN'S ROAD","LURGAN","","CRAIGAVON","ARMAGH","BT66 8TD","028 3834 2401","info@bleary.craigavon.ni.sch.uk","Primary school","Controlled","54.42462","-6.34141","307701","354162","145","21","2015","0","23","18","21","17","14","15","5","","","","","","","","","6.39","17.69"
"5032463","Blessed Patrick O'loughran Primary School","136 OLD CAULFIELD ROAD","CASTLECAULFIELD","","DUNGANNON","TYRONE","BT70 3NQ","028 8776 7311","info@castlecaulfield.dungannon.ni.sch.uk","Primary school","Roman Catholic Maintained","54.5053","-6.82981","275853","362506","116","17","2015","0","16","14","11","13","12","9","15","","","","","","","","","4.31","20.89"
"2116266","Bligh's Lane Nursery School","3 BLIGH'S LANE","","","LONDONDERRY","LONDONDERRY","BT48 9PJ","028 7126 7603","info@blighslanens.derry.ni.sch.uk","Nursery school","Controlled","54.99551","-7.33831","242398","416647","","","2015","","","","","","","","","","","","","","","","","2","28"
"1410315","Bloomfield Collegiate","8 ASTORIA GARDENS","","","BELFAST","ANTRIM","BT5 6HW","028 9047 1214","info@bloomfield.belfast.ni.sch.uk","Secondary (grammar) school","Controlled","54.59413","-5.86458","338073","373861","710","100","2015","","","","","","","","","101","103","106","105","98","85","93","0","43.6","15.8"
"4013023","Bloomfield Primary School","BLOOMFIELD ROAD SOUTH","","","BANGOR","DOWN","BT19 7PN","028 9127 1186","info@bloomfieldps.bangor.ni.sch.uk","Primary school","Controlled","54.6445","-5.65864","351195","379891","408","58","2015","0","58","57","55","58","55","53","59","","","","","","","","","19.66","21.41"
"1016207","Blythefield Primary School","BLYTHE STREET","","","BELFAST","ANTRIM","BT12 5HX","028 9032 8343","info@blythefield.belfast.ni.sch.uk","Primary school","Controlled","54.59156","-5.94318","333002","373424","513","73","2015","0","15","8","14","17","5","16","15","","","","","","","","","5","18"
"2AB0528","Bo Peeps Playgroup","Boho Community Hall","184 Boho Road","Tullyholvin","ENNISKILLEN","FERMANAGH","BT74 5BE","66341974","","VP Pre-schools","Other","54.34517","-7.80708","212595","344067","","","2015","","","","","","","","","","","","","","","","","",""
"4AB0165","Bo-Peep Corner Pre-School Playgroup","St Gall's Church","171 Crawfordsburn Road","","BANGOR","DOWN","BT19 1BT","O7714658040","","VP Pre-schools","Other","54.66037","-5.71267","347650","381543","","","2015","","","","","","","","","","","","","","","","","",""
"5016138","Bocombra Primary School","1 OLD LURGAN ROAD","","","PORTADOWN","ARMAGH","BT63 5SG","028 3833 6749","info@bocombra.portadown.ni.sch.uk","Primary school","Controlled","54.43029","-6.41221","303092","354688","300","43","2015","0","45","45","46","50","51","42","44","","","","","","","","","13.54","24.88"
"5BB0324","Bosco Community Playgroup","19 Loy Street","","","COOKSTOWN","TYRONE","BT80 8PZ","86763280","annemcgirr27@gmail.com","VP Pre-schools","Other","54.64324","-6.74537","281049","377955","","","2015","","","","","","","","","","","","","","","","","",""
"1016499","Botanic Primary School","6 BOTANIC COURT","","","BELFAST","ANTRIM","BT7 1QY","028 9032 8346","info@botanic.belfast.ni.sch.uk","Primary school","Controlled","54.58172","-5.92933","333929","372355","210","30","2015","0","29","27","30","26","29","24","27","","","","","","","","","12.6","17.62"
"5016098","Brackenagh West Primary School","22 CHURCH ROAD","","","KILKEEL","DOWN","BT34 4QB","028 417 65055","info@brackenaghwest.kilkeel.ni.sch.uk","Primary school","Controlled","54.09891","-5.97042","332820","318544","170","24","2015","0","24","28","25","29","23","24","25","","","","","","","","","7.92","22.48"
"3066551","Braidside Integrated Primary School","87 FRY'S ROAD","","","BALLYMENA","ANTRIM","BT43 7EN","028 2564 7899","info@braidsideintegratedps.ballymena.ni.sch.uk","Primary school","Grant Maintained Integrated","54.88092","-6.26168","311618","405075","348","50","2015","0","34","46","38","47","39","44","43","","","","","","","","","14.64","20.76"
"2BB0342","Brambly Hedge Community Playgroup","12 Cloughboy Road","Bready","","STRABANE","TYRONE","BT82 0DN","2871841994","","VP Pre-schools","Other","54.92131","-7.42196","237113","408340","","","2015","","","","","","","","","","","","","","","","","",""
"4011683","Braniel Primary School","RAVENSWOOD PARK","","","BELFAST","ANTRIM","BT5 7JU","028 9040 1234","info@branielps.belfast.ni.sch.uk","Primary school","Controlled","54.57745","-5.8606","338387","372013","408","58","2015","0","56","54","54","45","32","40","32","","","","","","","","","17.41","21.02"
"2016645","Bready Jubilee Primary School","12 CLOUGHBOY ROAD","BREADY","","STRABANE","TYRONE","BT82 0DN","028 71841319","info@bready.strabane.ni.sch.uk","Primary school","Controlled","54.92131","-7.42196","237113","408340","145","21","2015","0","19","19","20","17","14","20","13","","","","","","","","","4.8","25.42"
"4210316","Breda Academy","NEWTOWNBREDA ROAD","","","BELFAST","ANTRIM","BT8 6PY","02890 645374","info@breda.belfast.ni.sch.uk","Secondary (non-grammar) school","Controlled","54.55493","-5.91503","334942","369401","1000","170","2015","","","","","","","","","151","161","137","168","169","77","37","0","64.14","14.03"
"1110028","Brefne Nursery School","111 SALISBURY AVE","","","BELFAST","ANTRIM","BT15 5EB","028 9077 6270","info@brefnens.belfast.ni.sch.uk","Nursery school","Controlled","54.63051","-5.94188","332959","377761","","","2015","","","","","","","","","","","","","","","","","1","26"
"5066540","Bridge Integrated Primary School","70 BALLYGOWAN ROAD","","","BANBRIDGE","DOWN","BT32 3EL","028 4066 2055","info@bridge.banbridge.ni.sch.uk","Primary school","Grant Maintained Integrated","54.34448","-6.28375","311660","345333","406","58","2015","0","59","60","58","60","59","60","60","","","","","","","","","16.59","25.08"
"1CA0635","Bright Sparks","Skainos Building","239 NEWTOWNARDS ROAD","","BELFAST","ANTRIM","BT5 4HR","2890463480","tanya.malone@ebm.org.uk","VP Pre-schools","Other","54.59843","-5.89944","335806","374272","","","2015","","","","","","","","","","","","","","","","","",""
"4BB0584","Bright Sparks Pre-School","Crawfordsburn Primary School","4 Cootehall Road","Crawfordsburn","BANGOR","DOWN","BT19 1JA","7547457473","","VP Pre-schools","Other","54.65785","-5.72436","346905","381237","","","2015","","","","","","","","","","","","","","","","","",""
"2032278","Broadbridge Primary School","3 COOLAFINNY ROAD","EGLINTON","","LONDONDERRY","LONDONDERRY","BT47 3PG","028 7181 0520","info@broadbridge.derry.ni.sch.uk","Primary school","Roman Catholic Maintained","55.03198","-7.18514","252154","420811","398","57","2015","0","54","57","57","69","64","51","65","","","","","","","","","18","23.17"
"5AA0197","Brockagh Playgroup","Brockagh Youth Centre","11 Mountjoy Road","Coalisland","DUNGANNON","TYRONE","BT71 5DQ","02887738400 / 07801868553","margaret-fitz@hotmail.co.uk","VP Pre-schools","Other","54.55519","-6.6072","290163","368322","","","2015","","","","","","","","","","","","","","","","","",""
"5016612","Bronte Primary School","39 BALLINASKEAGH ROAD","BALLINASKEAGH","","BANBRIDGE","DOWN","BT32 5BL","028 4065 1486","info@bronte.banbridge.ni.sch.uk","Primary school","Controlled","54.26302","-6.23987","314740","336337","174","25","2015","0","28","28","27","19","29","14","25","","","","","","","","","7.12","25.78"
"2AB0318","Brookeborough & District Community Playgroup","Station House","2A Main Street","","BROOKEBOROUGH","FERMANAGH","BT94 4EZ","7766648692","","VP Pre-schools","Other","54.31437","-7.40822","238563","340783","","","2015","","","","","","","","","","","","","","","","","",""
"2011894","Brookeborough Primary School","BROOKEBOROUGH","","","ENNISKILLEN","FERMANAGH","BT94 4EZ","028 8953 1272","info@brookeboroughps.enniskillen.ni.sch.uk","Primary school","Controlled","54.31494","-7.40359","238864","340850","116","17","2015","2","10","11","8","12","14","4","8","","","","","","","","","3","23"
"4316022","Brookfield Special School","65 HALFPENNY GATE ROAD","MOIRA","","CRAIGAVON","ARMAGH","BT67 0HP","028 9262 2978","info@brookfieldss.craigavon.ni.sch.uk","Special school","Controlled","54.48972","-6.18449","317698","361659","","","2015","","","","","","","","","","","","","","","","","17.1","9.35"
"4016503","Brooklands Primary School","2A BROOKLANDS AVENUE","DUNDONALD","","BELFAST","ANTRIM","BT16 2PA","028 9048 7589","info@brooklandsps.belfast.ni.sch.uk","Primary school","Controlled","54.59455","-5.7918","342775","374054","665","95","2015","0","72","78","77","64","58","57","67","","","","","","","","","23.1","22.7"
"3AB0142","Broughshane Centre of Early Learning","Community Centre","23 Knockan Road","Broughshane","BALLYMENA","ANTRIM","BT42 4JY","2586 1621","","VP Pre-schools","Other","54.89339","-6.21508","314573","406539","","","2015","","","","","","","","","","","","","","","","","",""
"3013310","Broughshane Primary School","46A HOUSTON PARK","BROUGHSHANE","","BALLYMENA","ANTRIM","BT42 4LB","028 2586 1423","info@broughshaneps.ballymena.ni.sch.uk","Primary school","Controlled","54.89154","-6.21572","314537","406332","319","46","2015","0","49","55","48","38","52","36","51","","","","","","","","","15.16","22.56"
"4BA0602","Brownlee Playgroup by Little Rays","C/O Brownlee Primary School","Wallace Avenue","","LISBURN","ANTRIM","BT27 4AA","7936292475","","VP Pre-schools","Other","54.5134","-6.04277","326807","364541","","","2015","","","","","","","","","","","","","","","","","",""
"4010762","Brownlee Primary School","WALLACE AVENUE","","","LISBURN","ANTRIM","BT27 4AA","028 9266 5635","info@brownleeps.lisburn.ni.sch.uk","Primary school","Controlled","54.5134","-6.04277","326807","364541","196","28","2015","0","30","31","33","31","26","29","20","","","","","","","","","8.25","24.25"
"5250216","Brownlow Int College","TULLYGALLY ROAD","","","CRAIGAVON","ARMAGH","BT65 5BS","028 3834 2121","info@brownlowcollege.craigavon.ni.sch.uk","Secondary (non-grammar) school","Controlled Integrated","54.44838","-6.36382","306185","356773","450","90","2015","","","","","","","","","35","43","61","54","77","0","0","0","26.7","10.11"
"2CA0621","Buddies Childtime Centre","18 Woodbank Road","","","OMAGH","TYRONE","BT79 0NB","2882251592","","VP Pre-schools","Other","54.591","-7.24856","248625","371675","","","2015","","","","","","","","","","","","","","","","","",""
"3010714","Buick Memorial Primary School","62 MAIN STREET","CULLYBACKEY","","BALLYMENA","ANTRIM","BT42 1BW","028 2588 0368","info@buickmemorialps.cullybackey.ni.sch.uk","Primary school","Controlled","54.8873","-6.35288","305748","405644","472","60","2015","0","36","45","38","42","46","45","51","","","","","","","","","16.04","19.7"
"2AB0445","Bunnahone Bunnies Cross Community Playgroup","Tir Navar Complex","8C Creamery Road","Derrygonnelly","ENNISKILLEN","FERMANAGH","BT93 6HW","6864 1895","","VP Pre-schools","Other","54.41871","-7.82086","211678","352251","","","2015","","","","","","","","","","","","","","","","","",""
"5046597","Bunscoil an Iuir","74 KILMOREY STREET","","","NEWRY","DOWN","BT34 2DH","028 3026 0860","info@bunscoilaniuir.newry.ni.sch.uk","Primary school","Other Maintained","54.16904","-6.33377","308869","325728","129","18","2015","0","21","11","10","13","11","9","12","","","","","","","","","4.4","19.77"
"2046669","Bunscoil an Traonaigh","Drumbrughas North","Enniskillen Road","","LISNASKEA","FERMANAGH","BT92 OPE","028 67724441","info@bunscoilantraonaigh.lisnaskea.ni.sch.uk","Primary school","Other Maintained","54.26303","-7.4621","235100","335041","58","15","2015","0","11","7","7","8","3","5","4","","","","","","","","","3","15"
"1046593","Bunscoil An Tsleibhe Dhuibh","15A Ballymurphy Road","","","BELFAST","ANTRIM","BT12 7JL","028 9023 7146","info@bunscoilantsleibhedhuibh.belfast.ni.sch.uk","Primary school","Other Maintained","54.59268","-5.97886","330692","373482","203","29","2015","0","22","28","29","22","14","16","28","","","","","","","","","9.8","19.18"
"1046596","Bunscoil Bheann Mhadagain","WYNDHAM DRIVE","","","BELFAST","ANTRIM","BT14 6HP","028 9074 7184","info@bunscoilbheannmhadagain.belfast.ni.sch.uk","Primary school","Other Maintained","54.61834","-5.95029","332455","376391","145","21","2015","0","24","18","19","11","17","17","19","","","","","","","","","8","19.38"
"4046648","Bunscoil Bheanna Boirche","27 Bunker's Hill","","","CASTLEWELLAN","DOWN","BT31 9EB","028 43771356","info@bunscoilbb.castlewellan.ni.sch.uk","Primary school","Other Maintained","54.25386","-5.93764","334461","335851","87","15","2015","0","16","15","9","13","14","11","8","","","","","","","","","5","17.2"
"2036574","Bunscoil Cholmcille","40A STEELSTOWN ROAD","","","LONDONDERRY","LONDONDERRY","BT48 8EX","028 7135 9648","info@gaeloid.doire.ni.sch.uk","Primary school","Roman Catholic Maintained","55.02862","-7.30803","244300","420352","196","25","2015","0","11","10","15","12","12","14","9","","","","","","","","","6","18.17"
"1016647","Bunscoil Mhic Reachtain","10A LANCASTER STREET","","","BELFAST","ANTRIM","BT15 1EZ","028 9032 2409","info@bunscoilmhicreachtain.belfast.ni.sch.uk","Primary school","Controlled","54.60577","-5.92862","333896","375033","87","20","2015","0","15","16","10","13","10","11","9","","","","","","","","","4","21"
"1046501","Bunscoil Phobal Feirste","11 ROSGOILL PARK","","","BELFAST","ANTRIM","BT11 9QS","028 9030 1598","info@bunscoilphobalfeirste.belfast.ni.sch.uk","Primary school","Other Maintained","54.57356","-6.00466","329085","371306","406","58","2015","0","45","43","44","36","36","36","23","","","","","","","","","13","24.23"
"5016391","Bush Primary School","31 MULLAGHTEIGE ROAD","","","DUNGANNON","TYRONE","BT71 6QU","028 8772 5102","info@bush.dungannon.ni.sch.uk","Primary school","Controlled","54.51682","-6.72426","282667","363907","198","28","2015","0","19","25","29","29","30","31","26","","","","","","","","","8.66","23.33"
"3010873","Bushmills Primary School","5 PRIESTLAND ROAD","","","BUSHMILLS","ANTRIM","BT57 8QW","028 2073 1416","info@bushmillsps.bushmills.ni.sch.uk","Primary school","Controlled","55.20497","-6.52783","293777","440755","226","30","2015","0","17","12","9","13","9","12","18","","","","","","","","","6","19.33"
"3016594","Bushvalley Primary School","175 BALLINLEA ROAD","STRANOCUM","","BALLYMONEY","ANTRIM","BT53 8PR","028 2074 1888","info@bushvalleyps.ballymoney.ni.sch.uk","Primary school","Controlled","55.11761","-6.41426","301228","431189","174","25","2015","0","19","17","16","23","14","23","21","","","","","","","","","7.57","17.57"
"3BB0359","Busy Bee Playgroup","15 Station Road","","","MAGHERA","LONDONDERRY","BT46 5BS","028 7964 3756","","VP Pre-schools","Other","54.84416","-6.66862","285579","400411","","","2015","","","","","","","","","","","","","","","","","",""
"2AA0063","Busy Bees Nursery","61 Farnamullen Road","Lisbellaw","","ENNISKILLEN","FERMANAGH","BT94 5DZ","6638 5915","","VP Pre-schools","Other","54.30877","-7.5411","229919","340096","","","2015","","","","","","","","","","","","","","","","","",""
"4AB0508","Busy Bees Playgroup","Elim Pentecostal Church","85 Moira Road","","HILLSBOROUGH","DOWN","BT26 6DY","2892682751","","VP Pre-schools","Other","54.46841","-6.1165","322167","359403","","","2015","","","","","","","","","","","","","","","","","",""
"5AB0228","Busy Bees Playgroup (Burren)","St Mary's Hall","Bridge Road","Burren","WARRENPOINT","DOWN","BT34 3QT","4177 3478","busybees333@hotmail.com","VP Pre-schools","Other","54.13485","-6.26024","313764","322039","","","2015","","","","","","","","","","","","","","","","","",""
"5AB0200","Buttonmoon Pre-School Playgroup","Recreation Centre","24 Madden Road","Tandragee","TANDRAGEE","ARMAGH","BT62 2DG","3884 1110 / 02838841937","adela.kidzplay@gmail.com","VP Pre-schools","Other","54.35419","-6.40982","303438","346221","","","2015","","","","","","","","","","","","","","","","","",""
"4CA0634","Cabbage Patch Day Nursery","2B Ballycrochan Road","","","BANGOR","DOWN","BT19 6NF","2891472740","cabbagepatchdaynursery@gmail.com","VP Pre-schools","Voluntary","54.65664","-5.6276","353153","381309","","","2015","","","","","","","","","","","","","","","","","",""
"3016269","Cairncastle Primary School","12 CAIRNCASTLE ROAD","BALLYGALLY","","LARNE","ANTRIM","BT40 2RB","028 2858 3530","info@cairncastleps.larne.ni.sch.uk","Primary school","Controlled","54.89732","-5.86449","337051","407606","137","20","2015","0","12","20","19","13","20","22","19","","","","","","","","","5.57","22.43"
"4013024","Cairnshill Primary School","6A CAIRNSHILL DRIVE","","","BELFAST","ANTRIM","BT8 6RT","028 9070 5122","info@cairnshillps.belfast.ni.sch.uk","Primary school","Controlled","54.55194","-5.90177","335810","369093","583","83","2015","0","77","69","79","77","65","46","63","","","","","","","","","22.3","22.53"
"5AB0238","Caledon Playgroup","13a Derrycourtney Road","","","CALEDON","TYRONE","BT68 4UF","37569934","caledonplaygroup@btinternet.com","VP Pre-schools","Other","54.35114","-6.83891","275547","345337","","","2015","","","","","","","","","","","","","","","","","",""
"3410297","Cambridge House Grammar School","1 CAMBRIDGE AVENUE","","","BALLYMENA","ANTRIM","BT42 2EH","028 2564 3151","info@cambridgehousegrammar.ballymena.ni.sch.uk","Secondary (grammar) school","Controlled","54.85743","-6.29346","309642","402410","1030","140","2015","","","","","","","","","140","140","140","136","150","100","98","0","47.2","19.15"
"1420020","Campbell College","BELMONT ROAD","","","BELFAST","ANTRIM","BT4 2ND","028 9076 3076","info@campbell.belfast.ni.sch.uk","Secondary (grammar) school","Voluntary","54.60128","-5.84923","339041","374687","950","130","2015","","","","","","","","","135","126","127","123","140","123","125","1","65.28","13.79"
"1620020","Campbell College Junior School","562-594 Upper Newtownards Road","","","BELFAST","ANTRIM","BT4 3HJ","028 90763076","info@campbellcollegejs.belfast.ni.sch.uk","Preparatory Schools","Voluntary","54.5961","-5.84849","339106","374112","","","2015","0","27","27","38","34","43","43","38","","","","","","","","","14.6","17.12"
"3013322","Camphill Primary School","65 CAROLHILL PARK","","","BALLYMENA","ANTRIM","BT42 2DG","028 2565 2940","info@camphillps.ballymena.ni.sch.uk","Primary school","Controlled","54.84979","-6.28019","310515","401581","406","58","2015","0","60","60","55","58","60","55","56","","","","","","","","","16.8","24.05"
"2AB0066","Carebears Community Playgroup","c/o Newtownstewart Centre","17 Moyle Road","Newtownstewart","OMAGH","TYRONE","BT78 4AP","8166 2378","","VP Pre-schools","Other","54.71517","-7.37718","240188","385416","","","2015","","","","","","","","","","","","","","","","","",""
"3052071","Carhill Integrated Primary School","78 CARHILL ROAD","GARVAGH","","COLERAINE","LONDONDERRY","BT51 5PQ","028 2955 8635","info@carhillintps.garvagh.ni.sch.uk","Primary school","Controlled Integrated","54.9517","-6.68022","284608","412368","94","13","2015","0","5","10","12","13","10","11","6","","","","","","","","","4","16.75"
"3010825","Carnaghts Primary School","48 VALLEY ROAD","SHANKBRIDGE","","BALLYMENA","ANTRIM","BT42 2LX","028 2589 1403","info@carnaghtsps.ballymena.ni.sch.uk","Primary school","Controlled","54.81895","-6.26447","311610","398173","118","17","2015","0","16","20","9","14","16","15","12","","","","","","","","","4.74","21.52"
"3010470","Carnalbanagh Primary School","1 GLENVIEW ROAD","GLENARM","","BALLYMENA","ANTRIM","BT44 0DL","028 2884 1322","info@carnalbanaghps.ballymena.ni.sch.uk","Primary school","Controlled","54.90468","-6.02302","326859","408126","58","8","2015","0","3","6","8","3","5","6","8","","","","","","","","","2.4","16.25"
"3012049","Carnalridge Primary School","135 ATLANTIC ROAD","","","PORTRUSH","ANTRIM","BT56 8PB","028 7082 2686","info@carnalridgeps.portrush.ni.sch.uk","Primary school","Controlled","55.18367","-6.65748","285569","438218","230","30","2015","0","29","20","29","43","30","15","26","","","","","","","","","8.4","22.86"
"2116267","Carnhill Nursery School","1 VILLAGE LANE GLENGALLIAGH ROAD","","","LONDONDERRY","LONDONDERRY","BT48 8DU","028 7135 3013","info@carnhillns.derry.ni.sch.uk","Nursery school","Controlled","55.02667","-7.31763","243688","420129","","","2015","","","","","","","","","","","","","","","","","2","26"
"3016129","Carniny Primary School","61 OLD CULLYBACKEY ROAD","","","BALLYMENA","ANTRIM","BT43 5JR","028 2564 3814","info@carninyps.ballymena.ni.sch.uk","Primary school","Controlled","54.87282","-6.29797","309311","404116","283","40","2015","0","45","38","36","40","51","40","41","","","","","","","","","11.59","25.11"
"3050519","Carnlough Controlled Integrated Primary School","9 HARBOUR ROAD","CARNLOUGH","","BALLYMENA","ANTRIM","BT44 0EU","028 2888 5272","info@carnloughps.carnlough.ni.sch.uk","Primary school","Controlled Integrated","54.99249","-5.98958","328723","417961","62","9","2015","0","7","2","4","3","4","8","8","","","","","","","","","2.4","15"
"3013301","Carnmoney Primary School","275 CARNMONEY ROAD","","","NEWTOWNABBEY","ANTRIM","BT36 6JS","028 9083 3619","info@carnmoneyps.newtownabbey.ni.sch.uk","Primary school","Controlled","54.68269","-5.95008","332260","383553","448","60","2015","0","60","60","60","60","61","52","49","","","","","","","","","15.73","25.56"
"5012696","Carntall Primary School","5 AGHINTAIN ROAD","","","CLOGHER","TYRONE","BT76 0UY","028 8554 8423","info@carntall.clogher.ni.sch.uk","Primary school","Controlled","54.42756","-7.20393","251716","353514","82","12","2015","0","8","11","8","6","17","9","11","","","","","","","","","4.4","15.91"
"4011584","Carr Primary School","336 COMBER ROAD","","","LISBURN","ANTRIM","BT27 6TB","028 9263 8615","info@carrps.lisburn.ni.sch.uk","Primary school","Controlled","54.49833","-5.93402","333899","363065","100","14","2015","5","10","9","11","10","7","6","4","","","","","","","","","3.64","17.06"
"1010282","Carr's Glen Primary School","629-633 OLDPARK ROAD","","","BELFAST","ANTRIM","BT14 6QX","028 9039 1286","info@carrsglen.belfast.ni.sch.uk","Primary school","Controlled","54.62518","-5.96208","331672","377130","472","60","2015","0","60","54","60","68","29","56","44","","","","","","","","","16.2","22.9"
"5BB0538","Carrick Pre-School","63 Ballydesland Road","Burren","","WARRENPOINT","DOWN","BT34 3QA","2841752159","carrickps2@gmail.com","VP Pre-schools","Other","54.13488","-6.25926","313828","322044","","","2015","","","","","","","","","","","","","","","","","",""
"5011127","Carrick Primary School","SLOAN AVENUE","","","LURGAN","ARMAGH","BT66 8NY","028 3832 2458","info@carrick.lurgan.ni.sch.uk","Primary school","Controlled","54.45802","-6.34223","307560","357879","423","60","2015","0","60","54","60","60","55","42","46","","","","","","","","","23.25","18.45"
"5031609","Carrick Primary School","61 BALLYDESLAND ROAD","","","WARRENPOINT","DOWN","BT34 3QA","028 4175 2448","info@carrick.warrenpoint.ni.sch.uk","Primary school","Roman Catholic Maintained","54.13434","-6.25802","313911","321986","406","58","2015","0","48","63","60","49","64","67","55","","","","","","","","","15.69","25.87"
"3010841","Carrickfergus Central Primary School","THOMAS STREET","","","CARRICKFERGUS","ANTRIM","BT38 8AL","028 9335 1272","info@carrickcentralps.carrickfergus.ni.sch.uk","Primary school","Controlled","54.7167","-5.81217","341035","387607","232","33","2015","0","5","11","10","11","8","13","14","","","","","","","","","4.4","16.36"
"3210091","Carrickfergus College","110 NORTH ROAD","","","CARRICKFERGUS","ANTRIM","BT38 7QX","028 9336 2347","info@carrickcollege.carrickfergus.ni.sch.uk","Secondary (non-grammar) school","Controlled","54.72753","-5.81326","340927","388810","900","160","2015","","","","","","","","","139","128","103","117","97","60","40","0","43.1","15.87"
"3410098","Carrickfergus Grammar School","120 NORTH ROAD","","","CARRICKFERGUS","ANTRIM","BT38 7RA","028 9336 3615","info@carrickfergusgrammar.carrickfergus.ni.sch.uk","Secondary (grammar) school","Controlled","54.72995","-5.81712","340670","389072","800","116","2015","","","","","","","","","119","117","120","120","122","120","88","0","49.2","16.38"
"3010553","Carrickfergus Model Primary School","4 BELFAST ROAD","","","CARRICKFERGUS","ANTRIM","BT38 8BU","028 9335 1560","info@carrickmodelps.carrickfergus.ni.sch.uk","Primary school","Controlled","54.71222","-5.81635","340781","387100","406","58","2015","0","60","56","56","57","56","55","58","","","","","","","","","16","24.88"
"4011310","Carrickmannon Primary School","77 CARRICKMANNON ROAD","","","NEWTOWNARDS","DOWN","BT23 6JJ","028 9752 8713","info@carrickmannonps.newtownards.ni.sch.uk","Primary school","Controlled","54.48021","-5.77834","344047","361356","100","14","2015","0","13","12","17","12","15","18","14","","","","","","","","","4.4","22.95"
"4BB0375","Carrowdore Early Years Centre","Carrowdore Primary School","Castle Place","Carrowdore","NEWTOWNARDS","DOWN","BT22 2JJ","91863303","","VP Pre-schools","Other","54.57844","-5.55324","358254","372772","","","2015","","","","","","","","","","","","","","","","","",""
"4016020","Carrowdore Primary School","CASTLE PLACE","","","CARROWDORE","DOWN","BT22 2JJ","028 9186 2791","info@carrowdoreps.newtownards.ni.sch.uk","Primary school","Controlled","54.57844","-5.55324","358254","372772","194","28","2015","0","22","19","27","26","20","22","22","","","","","","","","","7.41","21.32"
"3010572","Carrowreagh Primary School","110B FINVOY ROAD","","","BALLYMONEY","ANTRIM","BT53 7JL","028 2766 2440","info@carrowreaghps.ballymoney.ni.sch.uk","Primary school","Controlled","55.02146","-6.50692","295545","420356","102","15","2015","0","13","10","17","14","9","12","8","","","","","","","","","3","27.67"
"4BB0170","Carryduff Pre-School Playgroup","20a Church Road","Carryduff","","BELFAST","ANTRIM","BT8 8DT","9081 4524","","VP Pre-schools","Other","54.51461","-5.88592","336960","364970","","","2015","","","","","","","","","","","","","","","","","",""
"4013044","Carryduff Primary School","KILLYNURE ROAD","CARRYDUFF","","BELFAST","ANTRIM","BT8 8EE","028 9081 2918","info@carryduffps.belfast.ni.sch.uk","Primary school","Controlled","54.51509","-5.88525","337002","365024","333","48","2015","0","30","27","31","30","22","25","28","","","","","","","","","10.52","18.34"
"4011462","Castle Gardens Primary School","69 BOWTOWN ROAD","","","NEWTOWNARDS","DOWN","BT23 8SH","028 9181 3827","info@castlegdns.newtownards.ni.sch.uk","Primary school","Controlled","54.58707","-5.67272","350498","373470","420","87","2015","0","37","28","36","38","37","28","31","","","","","","","","","10.39","22.62"
"3013704","Castledawson Primary School","72 MAIN STREET","CASTLEDAWSON","","MAGHERAFELT","LONDONDERRY","BT45 8AB","028 7946 8309","info@castledawson.magherafelt.ni.sch.uk","Primary school","Controlled","54.77725","-6.56013","292701","393101","145","21","2015","0","14","13","15","13","10","14","14","","","","","","","","","5","18.6"
"2210065","Castlederg High School","16 CASTLEGORE ROAD","","","CASTLEDERG","TYRONE","BT81 7RU","028 8167 1272","info@chs.castlederg.ni.sch.uk","Secondary (non-grammar) school","Controlled","54.70197","-7.59535","226136","383844","450","90","2015","","","","","","","","","53","69","46","72","70","61","50","0","30.6","13.76"
"4116240","Castlereagh Nursery School","135 CLONDUFF DRIVE","","","BELFAST","ANTRIM","BT6 9NR","028 9070 4539","info@castlereaghns.belfast.ni.sch.uk","Nursery school","Controlled","54.57586","-5.88086","337082","371796","","","2015","","","","","","","","","","","","","","","","","2","26"
"3AB0119","Castlerock Community Playgroup","Peter Thompson Hall","Castlewalk","Castlerock","COLERAINE","LONDONDERRY","BT51 4TP","02870848265 / 07517343258","","VP Pre-schools","Other","55.16556","-6.78944","277198","436048","","","2015","","","","","","","","","","","","","","","","","",""
"3012288","Castleroe Primary School","120 CASTLEROE ROAD","","","COLERAINE","LONDONDERRY","BT51 3RN","028 7035 2880","info@castleroeps.coleraine.ni.sch.uk","Primary school","Controlled","55.10539","-6.65661","285792","429505","98","14","2015","0","14","19","15","15","17","12","10","","","","","","","","","5.34","19.1"
"3BB0607","Castletower Pre-School","Castletower Special School","91 Fry's Road","","BALLYMENA","ANTRIM","BT43 7EN","2825648264","","VP Pre-schools","Other","54.88263","-6.2638","311477","405262","","","2015","","","","","","","","","","","","","","","","","",""
"3316676","Castletower School","91 Fry's Road","","","BALLYMENA","ANTRIM","BT43 7EN","","info@castletower.ballymena.ni.sch.uk","Special school","Controlled","54.88263","-6.2638","311477","405262","","","2015","","","","","","","","","","","","","","","","","39.8","6.43"
"4AB0435","Castlewellan Community Playgroup","32 Circular Road","","","CASTLEWELLAN","DOWN","BT31 9ED","7936296044","","VP Pre-schools","Other","54.25628","-5.94009","334293","336115","","","2015","","","","","","","","","","","","","","","","","",""
"4011599","Castlewellan Primary School","2 CHURCH STREET","","","CASTLEWELLAN","DOWN","BT31 9EG","028 4377 8541","info@castlewellanps.castlewellan.ni.sch.uk","Primary school","Controlled","54.25745","-5.9387","334380","336248","110","16","2015","2","5","8","5","4","10","9","9","","","","","","","","","4.66","11.15"
"3CA0631","Causeway Pre-School","113 Causeway Street","","","PORTRUSH","ANTRIM","BT56 8JE","028 7082 3388","","VP Pre-schools","Other","55.20241","-6.64701","286195","440317","","","2015","","","","","","","","","","","","","","","","","",""
"1010831","Cavehill Primary School","UPPER CASTLE PARK","","","BELFAST","ANTRIM","BT15 5FG","028 9077 7703","info@cavehill.belfast.ni.sch.uk","Primary school","Controlled","54.63589","-5.9449","332746","378354","406","58","2015","0","53","59","61","59","60","56","60","","","","","","","","","16.6","24.58"
"5316521","Ceara Special School","SLOAN STREET","","","LURGAN","ARMAGH","BT66 8NY","028 3832 3312","info@ceara.lurgan.ni.sch.uk","Special school","Controlled","54.45926","-6.34297","307509","358016","","","2015","","","","","","","","","","","","","","","","","21","6.02"
"4066588","Cedar Integrated Primary School","29 KILMORE ROAD","","","CROSSGAR","DOWN","BT30 9HJ","028 4483 0009","info@cedarips.downpatrick.ni.sch.uk","Primary school","Grant Maintained Integrated","54.39374","-5.76483","345228","351760","196","28","2015","0","29","24","29","29","27","24","29","","","","","","","","","9.22","22.13"
"1310003","Cedar Lodge Special School","24 Landsdowne Park North","Belfast","","BELFAST","ANTRIM","BT15 4AE","028 9077 7292","info@cedarlodge.belfast.ni.sch.uk","Special school","Controlled","54.63519","-5.92768","333860","378309","","","2015","","","","","","","","","","","","","","","","","21.89","9.46"
"2BB0565","Chapel Road Community Playgroup","Knockdara Park","","","LONDONDERRY","LONDONDERRY","BT47 2BD","2871318838","","VP Pre-schools","Other","54.99006","-7.30775","244360","416060","","","2015","","","","","","","","","","","","","","","","","",""
"2036465","Chapel Road Primary School","KNOCKDARA PARK","WATERSIDE","","LONDONDERRY","LONDONDERRY","BT47 2BD","028 7134 1419","info@chapelroadps.derry.ni.sch.uk","Primary school","Roman Catholic Maintained","54.99006","-7.30775","244360","416060","276","30","2015","0","21","27","34","33","25","36","24","","","","","","","","","9.6","20.83"
"1CA0636","Child's Play Day Nursery","14 Dundela Avenue","","","BELFAST","ANTRIM","BT4 3BQ","2890029222","heather.hewitt@hotmail.co.uk","VP Pre-schools","Other","54.59959","-5.8802","337045","374439","","","2015","","","","","","","","","","","","","","","","","",""
"5CA0596","Child's Play Pre-School","St Teresa Parish Church","Ballygowan Road","","BANBRIDGE","DOWN","BT32 3AF","2840623362","mariawalshy@hotmail.com","VP Pre-schools","Other","54.34539","-6.26686","312756","345461","","","2015","","","","","","","","","","","","","","","","","",""
"4AB0283","Chirpy Chicks Playgroup","Village Hall","62 Newtownards Road","Greyabbey","NEWTOWNARDS","DOWN","BT22 2QH","07577855185/ 07473852122","","VP Pre-schools","Other","54.53725","-5.56694","357527","368157","","","2015","","","","","","","","","","","","","","","","","",""
"2036449","Christ the King Primary School","34 GORTIN ROAD","","","OMAGH","TYRONE","BT79 7HX","028 8224 7051","info@christtheking.omagh.ni.sch.uk","Primary school","Roman Catholic Maintained","54.61349","-7.30183","245157","374143","337","48","2015","0","27","35","28","24","26","20","19","","","","","","","","","12","17.08"
"4031328","Christ the King Primary School","9 DRUMSNADE ROAD","","","BALLYNAHINCH","DOWN","BT24 8NG","028 9756 5193","info@christtheking.ballynahinch.ni.sch.uk","Primary school","Roman Catholic Maintained","54.36199","-5.86291","338966","348029","197","28","2015","0","19","14","17","14","13","15","11","","","","","","","","","5","20.6"
"4036618","Christ the Redeemer Primary School","LAGMORE DRIVE","DUNMURRAY","","BELFAST","ANTRIM","BT17 0TG","028 9060 1136","info@redeemerps.lagmore.ni.sch.uk","Primary school","Roman Catholic Maintained","54.5501","-6.0329","327332","368643","630","100","2015","0","101","89","90","90","86","70","74","","","","","","","","","28.03","23.26"
"1230146","Christian Brothers School","GLEN ROAD","","","BELFAST","ANTRIM","BT11 8BW","028 9080 8050","info@christianbrothers.belfast.ni.sch.uk","Secondary (non-grammar) school","Roman Catholic Maintained","54.57998","-5.99733","329539","372034","750","100","2015","","","","","","","","","97","43","41","70","57","105","83","2","31","16.06"
"2420064","Christian Brothers' Grammar School","KEVLIN ROAD","","","OMAGH","TYRONE","BT78 1LD","028 8224 3567","info@cbs.omagh.ni.sch.uk","Secondary (grammar) school","Voluntary","54.59776","-7.30239","245138","372392","950","135","2015","","","","","","","","","141","137","137","139","137","138","141","6","63.71","15.32"
"5031110","Christian Brothers' Primary School","GREENPARK KEADY ROAD","","","ARMAGH","ARMAGH","BT60 4AB","028 3752 4354","info@armaghcbs.armagh.ni.sch.uk","Primary school","Roman Catholic Maintained","54.34214","-6.66019","287186","344541","440","68","2015","0","76","84","61","61","54","63","51","","","","","","","","","24.46","19.62"
"4BB0174","Chuckles Playgroup","51 Abbeydale Park","","","NEWTOWNARDS","DOWN","BT23 8RE","9182 6730","","VP Pre-schools","Other","54.59622","-5.67224","350495","374489","","","2015","","","","","","","","","","","","","","","","","",""
"5012538","Churchill Primary School","4 CHURCH HILL ROAD","","","CALEDON","TYRONE","BT68 4UY","028 3756 8605","info@churchill.caledon.ni.sch.uk","Primary school","Controlled","54.35323","-6.8372","275654","345571","82","12","2015","0","7","7","11","10","10","5","8","","","","","","","","","3.4","17.06"
"5016141","Churchtown Primary School","36 MUFF ROAD","","","COOKSTOWN","TYRONE","BT80 9XA","028 8676 5075","info@churchtown.cookstown.ni.sch.uk","Primary school","Controlled","54.68544","-6.74773","280813","382649","82","12","2015","0","7","2","4","6","3","6","4","","","","","","","","","2.4","13.33"
"5210121","City Armagh High School","88-96 ALEXANDER ROAD","","","ARMAGH","ARMAGH","BT61 7JH","028 3752 2278","info@armaghhigh.armagh.ni.sch.uk","Secondary (non-grammar) school","Controlled","54.3568","-6.65167","287709","346184","650","115","2015","","","","","","","","","53","52","53","42","58","9","9","0","24","11.5"
"5AB0399","Clady Tiny Tots Playgroup","88 Cladymore Road","Mowham","","ARMAGH","ARMAGH","BT60 2EP","3750 7450","cladytinytots368@yahoo.co.uk","VP Pre-schools","Other","54.25664","-6.56298","293702","335149","","","2015","","","","","","","","","","","","","","","","","",""
"4011670","Clandeboye Primary School","CLANDEBOYE ROAD","","","BANGOR","DOWN","BT20 3JW","028 9127 1730","info@clandeboyeps.bangor.ni.sch.uk","Primary school","Controlled","54.65172","-5.6817","349680","380645","406","58","2015","0","55","49","52","47","35","25","19","","","","","","","","","12.6","22.38"
"1316584","Clarawood Special School","CLARAWOOD PARK","","","BELFAST","ANTRIM","BT5 6FR","028 9047 2736","info@clarawood.belfast.ni.sch.uk","Special school","Controlled","54.58638","-5.86859","337840","372991","","","2015","","","","","","","","","","","","","","","","","6.83","1.9"
"5011142","Clare Primary School","58 CLOGHOGE ROAD","","","TANDRAGEE","ARMAGH","BT62 2HB","028 3884 0843","info@clareps.tandragee.ni.sch.uk","Primary school","Controlled","54.32668","-6.44942","300931","343102","143","20","2015","0","22","18","24","20","20","26","18","","","","","","","","","5.8","25.52"
"5031108","Clea Primary School","85 CLAY ROAD","","","KEADY","ARMAGH","BT60 3QX","028 3753 1096","info@cleaps.keady.ni.sch.uk","Primary school","Roman Catholic Maintained","54.21835","-6.71433","283916","330697","101","14","2015","6","17","14","11","11","16","11","16","","","","","","","","","4","25.5"
"4316518","Clifton Special School","292A OLD BELFAST ROAD","","","BANGOR","DOWN","BT19 BT1","028 9127 0210","info@cliftonss.bangor.ni.sch.uk","Special school","Controlled","54.64931","-5.71198","347735","380313","","","2015","","","","","","","","","","","","","","","","","22.87","6.43"
"1056483","Cliftonville Integrated Primary School","93 CLIFTONVILLE ROAD","","","BELFAST","ANTRIM","BT14 6JQ","028 9035 1638","info@cliftonville.belfast.ni.sch.uk","Primary school","Controlled Integrated","54.61774","-5.94405","332860","376336","338","48","2015","0","56","49","43","39","41","33","26","","","","","","","","","17","18.41"
"5031080","Clintyclay Primary School","81 CLONMORE ROAD","","","DUNGANNON","TYRONE","BT71 6HX","028 8778 4498","info@clintyclay.dungannon.ni.sch.uk","Primary school","Roman Catholic Maintained","54.47091","-6.6425","288060","358896","47","7","2015","1","5","6","9","4","6","4","4","","","","","","","","","2.2","17.73"
"5AB0331","Clogher Valley Playgroup","7 Tullybroom Road","","","CLOGHER","TYRONE","BT76 0UW","8554 9625","cloghervalleyplaygroup@btconnect.com","VP Pre-schools","Other","54.4167","-7.17229","253784","352329","","","2015","","","","","","","","","","","","","","","","","",""
"5031086","Clonalig Primary School","120 CONCESSION ROAD","","","NEWRY","DOWN","BT35 9JE","028 3086 1513","info@clonalig.culloville.ni.sch.uk","Primary school","Roman Catholic Maintained","54.05648","-6.62205","290287","312794","168","24","2015","2","32","35","25","16","26","22","24","","","","","","","","","9","20.22"
"5AB0203","Clonduff Playgroup","Carcullion House","25 Rostrevor Road","Hilltown","NEWRY","DOWN","BT34 5TU","4063 8234","clonduffpg@hotmail.com","VP Pre-schools","Other","54.19183","-6.14373","321212","328574","","","2015","","","","","","","","","","","","","","","","","",""
"3010834","Clough Primary School","20 DRUMAGROVE ROAD","CLOUGH","","BALLYMENA","ANTRIM","BT44 9RY","028 2568 5472","info@cloughps.ballymena.ni.sch.uk","Primary school","Controlled","54.96555","-6.28482","309902","414459","161","23","2015","0","18","16","20","23","22","24","23","","","","","","","","","8.03","19.85"
"3BB0360","Cloughmills Early Years","Youth Wing","Cloughmills Primary School 34 Main Street","Cloughmills","BALLYMENA","ANTRIM","BT44 9LF","07453630403 / 07864692076","","VP Pre-schools","Other","54.99773","-6.33014","306914","417970","","","2015","","","","","","","","","","","","","","","","","",""
"3016260","Cloughmills Primary School","MAIN STREET","CLOUGHMILLS","","BALLYMENA","ANTRIM","BT44 9LF","028 2763 8498","info@cloughmillsps.cloughmills.ni.sch.uk","Primary school","Controlled","54.99773","-6.33014","306914","417970","143","20","2015","0","12","10","11","16","6","5","14","","","","","","","","","4.35","17"
"5031130","Cloughoge Primary School","81 CHANCELLORS ROAD","","","NEWRY","DOWN","BT35 8NG","028 3026 2688","info@cloughoge.newry.ni.sch.uk","Primary school","Roman Catholic Maintained","54.16185","-6.35627","307418","324893","406","58","2015","0","61","61","52","62","50","52","61","","","","","","","","","17.6","25.74"
"5210043","Clounagh Junior High School","BROWNSTOWN ROAD","","","PORTADOWN","ARMAGH","BT62 3QA","028 3833 2717","info@clounagh.portadown.ni.sch.uk","Secondary (non-grammar) school","Controlled","54.41735","-6.45874","300104","353180","660","220","2015","","","","","","","","","188","209","199","9","8","0","0","0","37.36","16.41"
"5012649","Coagh Primary School","31 URBAL ROAD","","","COOKSTOWN","TYRONE","BT80 0DW","028 8673 7676","info@coaghps.coagh.ni.sch.uk","Primary school","Controlled","54.64633","-6.62074","289088","378449","106","15","2015","0","17","23","6","10","14","7","8","","","","","","","","","4.4","19.32"
"1240291","Colaiste Feirste","7 BEECHVIEW PARK","FALLS ROAD","","BELFAST","ANTRIM","BT12 7PY","028 9032 0707","info@colaistefeirste.belfast.ni.sch.uk","Secondary (non-grammar) school","Other Maintained","54.59182","-5.97117","331192","373400","600","100","2015","","","","","","","","","103","112","98","81","76","73","62","0","46.02","13.15"
"3210300","Coleraine College","14 CARTHALL ROAD","","","COLERAINE","LONDONDERRY","BT51 3LR","028 7035 7000","info@colerainecollege.coleraine.ni.sch.uk","Secondary (non-grammar) school","Controlled","55.13247","-6.68634","283838","432483","600","140","2015","","","","","","","","","40","32","34","37","35","18","16","0","20.6","10.29"
"3420317","Coleraine Grammar","23-33 CASTLEROCK ROAD","","","COLERAINE","LONDONDERRY","BT51 3LA","028 7034 4331","info@colerainegrammar.coleraine.ni.sch.uk","Secondary (grammar) school","Voluntary","55.13662","-6.68562","283875","432946","1480","156","2015","","","","","","","","","157","247","247","242","239","188","170","0","90.31","16.5"
"5136607","College Farm Nursery School","LOWER DESART LANE","","","ARMAGH","ARMAGH","BT61 8AN","028 3751 8276","info@collegefarmns.armagh.ni.sch.uk","Nursery school","Roman Catholic Maintained","54.35388","-6.66276","286994","345845","","","2015","","","","","","","","","","","","","","","","","2","26"
"4011588","Comber Primary School","DARRAGH ROAD","COMBER","","NEWTOWNARDS","DOWN","BT23 5BX","028 9187 2197","info@comberps.newtownards.ni.sch.uk","Primary school","Controlled","54.55251","-5.74308","346074","369475","409","58","2015","0","53","48","55","54","39","45","51","","","","","","","","","16.86","22"
"4136212","Convent of Mercy Nursery School","FOLLY LANE","","","DOWNPATRICK","DOWN","BT30 6NF","028 4461 4682","info@conventofmercyns.downpatrick.ni.sch.uk","Nursery school","Roman Catholic Maintained","54.32587","-5.71439","348749","344313","","","2015","","","","","","","","","","","","","","","","","2","26"
"5210230","Cookstown High School","COOLNAFRANKIE DEMESNE","MOLESWORTH STREET","","COOKSTOWN","TYRONE","BT80 8PQ","028 8676 3620","info@chs.cookstown.ni.sch.uk","Secondary (non-grammar) school","Controlled","54.64335","-6.73708","281584","377976","1100","180","2015","","","","","","","","","136","108","126","131","138","80","68","0","55.8","14.1"
"5116237","Cookstown Nursery School","COOLNAFRANKY ESTATE","","","COOKSTOWN","TYRONE","BT80 8PF","028 8676 4451","info@cookstownns.cookstown.ni.sch.uk","Nursery school","Controlled","54.64243","-6.7415","281300","377869","","","2015","","","","","","","","","","","","","","","","","2","26"
"5012726","Cookstown Primary School","COOLNAFRANKY DEMESNE","MOLESWORTH STREET","","COOKSTOWN","TYRONE","BT80 8PF","028 8676 2622","info@cps.cookstown.ni.sch.uk","Primary school","Controlled","54.64338","-6.74127","281313","377975","719","103","2015","0","83","72","74","65","59","61","62","","","","","","","","","22.4","21.25"
"2016663","Cooley Primary School","90 COOLEY ROAD","COOLEY","","OMAGH","TYRONE","BT79 9DH","028 80758742","info@cooley.omagh.ni.sch.uk","Primary school","Controlled","54.55651","-7.12651","256563","367927","174","25","2015","0","20","12","20","19","12","21","18","","","","","","","","","6.42","20.88"
"1230262","Corpus Christi College","ARD NA VA ROAD","","","BELFAST","ANTRIM","BT12 6FF","028 9024 5645","info@corpuschristi.belfast.ni.sch.uk","Secondary (non-grammar) school","Roman Catholic Maintained","54.59343","-5.96872","331345","373584","600","100","2015","","","","","","","","","34","29","32","47","60","64","45","0","24.25","12.83"
"3066561","Corran Integrated Primary School","BLACKCAVE NORTH","OLD GLENARM ROAD","","LARNE","ANTRIM","BT40 1TP","028 2827 3455","info@corranintegratedps.larne.ni.sch.uk","Primary school","Grant Maintained Integrated","54.86974","-5.82302","339807","404618","203","29","2015","0","17","20","17","20","21","24","21","","","","","","","","","9","17"
"5011175","Cortamlet Primary School","19 CORTAMLET ROAD","ALTNAMACHIN","","NEWRY","DOWN","BT35 0EE","028 3087 8310","info@cortamlet.altnamackin.ni.sch.uk","Primary school","Controlled","54.17829","-6.62446","289865","326349","111","16","2015","3","12","14","14","12","11","18","13","","","","","","","","","4.4","22.05"
"4CA0570","Country Kids Day Nursery","223 Killaughey Road","","","DONAGHADEE","DOWN","BT21 0LJ","2891889555","","VP Pre-schools","Other","54.63126","-5.54938","358298","378658","","","2015","","","","","","","","","","","","","","","","","",""
"5210282","Craigavon Senior High School","26-34 LURGAN ROAD","","","PORTADOWN","ARMAGH","BT63 5HJ","028 3834 9222","info@craigavonsenhigh.portadown.ni.sch.uk","Secondary (non-grammar) school","Controlled","54.43108","-6.42344","302361","354759","620","310","2015","","","","","","","","","0","0","0","304","286","0","0","0","42.6","13.85"
"1066580","Cranmore Integrated Primary School","47 FINAGHY ROAD NORTH","","","BELFAST","ANTRIM","BT10 0JB","028 90664410","info@cranmore.belfast.ni.sch.uk","Primary school","Grant Maintained Integrated","54.56725","-5.9836","330467","370642","203","29","2015","0","29","29","29","30","31","31","28","","","","","","","","","9","23"
"1BB0507","Cranmore Integrated Primary School Playgroup","47 Finaghy Road North","","","BELFAST","ANTRIM","BT10 0JB","90 664410 / 02890665216","wdoherty690@c2kni.net","VP Pre-schools","Other","54.56725","-5.9836","330467","370642","","","2015","","","","","","","","","","","","","","","","","",""
"4AB0509","Crawfordsburn Playgroup","Ballygilbert Presbyterian Church","367 Belfast Road","","BANGOR","DOWN","BT19 1UH","7927903489","","VP Pre-schools","Other","54.65273","-5.74653","345493","380621","","","2015","","","","","","","","","","","","","","","","","",""
"4011645","Crawfordsburn Primary School","4 COOTEHALL ROAD","CRAWFORDSBURN","","BANGOR","DOWN","BT19 1JA","028 9185 3813","info@crawfordsburnps.bangor.ni.sch.uk","Primary school","Controlled","54.65785","-5.72436","346905","381237","221","30","2015","0","30","30","32","30","29","31","27","","","","","","","","","8.62","24.25"
"3010741","Creavery Primary School","38 THORNHILL ROAD","","","ANTRIM","ANTRIM","BT41 2LH","028 9446 6915","info@creaveryps.antrim.ni.sch.uk","Primary school","Controlled","54.76154","-6.22925","314035","391840","76","11","2015","0","15","13","11","16","13","11","11","","","","","","","","","4.14","21.74"
"4BB0162","Cregagh Pre-School Playgroup","Cregagh Youth & Community Centre","Mount Merrion Avenue","","BELFAST","ANTRIM","BT6 0FL","07511694712/ 02890870477","","VP Pre-schools","Other","54.57548","-5.90085","335791","371715","","","2015","","","","","","","","","","","","","","","","","",""
"4011632","Cregagh Primary School","MOUNT MERRION AVENUE","","","BELFAST","ANTRIM","BT6 0FL","028 9040 1246","info@cregaghps.belfast.ni.sch.uk","Primary school","Controlled","54.57548","-5.90085","335791","371715","203","29","2015","0","27","23","20","22","30","22","29","","","","","","","","","10.46","16.53"
"3030434","Creggan Primary School","118 STAFFORDSTOWN ROAD","RANDALSTOWN","","ANTRIM","ANTRIM","BT41 3LH","028 9447 2399","info@cregganps.randalstown.ni.sch.uk","Primary school","Roman Catholic Maintained","54.72271","-6.35563","306002","387319","116","17","2015","0","18","15","17","15","20","14","18","","","","","","","","","5.6","20.89"
"3230227","Cross and Passion College","10 MOYLE ROAD","","","BALLYCASTLE","ANTRIM","BT54 6LA","028 2076 2473","info@crossandpassion.ballycastle.ni.sch.uk","Secondary (non-grammar) school","Roman Catholic Maintained","55.2031","-6.25414","311206","440949","720","130","2015","","","","","","","","","109","90","104","114","102","106","101","13","48.2","15.33"
"4BB0185","Crossgar Community Playgroup","Glasswater Primary School","6 John Street","Crossgar","DOWNPATRICK","DOWN","BT30 9EG","4483 2753 / 07816877221","","VP Pre-schools","Other","54.39676","-5.75754","345691","352112","","","2015","","","","","","","","","","","","","","","","","",""
"3032218","Crossroads Primary School","157 DRUMAGARNER ROAD","KILREA","","COLERAINE","LONDONDERRY","BT51 5TW","028 2954 0047","info@crossroadsps.kilrea.ni.sch.uk","Primary school","Roman Catholic Maintained","54.92022","-6.59187","290339","408974","145","21","2015","0","19","14","19","16","14","13","17","","","","","","","","","6","18.67"
"3BB0127","Crow's Nest Community Playgroup","127 Curragh Road","Aghadowey","","COLERAINE","LONDONDERRY","BT51 4BT","2870868230","","VP Pre-schools","Other","55.05484","-6.6082","288994","423938","","","2015","","","","","","","","","","","","","","","","","",""
"3050859","Crumlin Controlled Intergrated Primary School","27 MILL ROAD","","","CRUMLIN","ANTRIM","BT29 4XL","028 9442 2357","info@crumlincips.crumlin.ni.sch.uk","Primary school","Controlled Integrated","54.62205","-6.21367","315433","376339","286","41","2015","0","24","25","23","18","22","20","12","","","","","","","","","8.97","16.05"
"3250149","Crumlin Integrated College","10 GLENAVY ROAD","","","CRUMLIN","ANTRIM","BT29 4LA","028 9445 2497","info@cic.crumlin.ni.sch.uk","Secondary (non-grammar) school","Controlled Integrated","54.61855","-6.21954","315064","375940","400","75","2015","","","","","","","","","24","20","15","10","31","0","0","0","15.8","6.33"
"3BB0573","Crumlin Integrated Pre School","27 Mill Road","","","CRUMLIN","ANTRIM","BT29 4XL","2894422357","","VP Pre-schools","Other","54.62205","-6.21367","315433","376339","","","2015","","","","","","","","","","","","","","","","","",""
"3012065","Culcrow Primary School","129 CURRAGH ROAD","AGHADOWEY","","COLERAINE","LONDONDERRY","BT51 4BT","028 7086 8504","info@culcrowps.coleraine.ni.sch.uk","Primary school","Controlled","55.05484","-6.6082","288994","423938","77","11","2015","0","14","12","19","14","14","13","8","","","","","","","","","4.4","21.36"
"3210172","Cullybackey College","44 POTTINGER STREET","CULLYBACKEY","","BALLYMENA","ANTRIM","BT42 1BP","028 2588 0771","info@cullybackeycollege.ballymena.ni.sch.uk","Secondary (non-grammar) school","Controlled","54.8865","-6.35363","305702","405554","700","130","2015","","","","","","","","","111","104","88","113","118","57","41","0","40.1","15.76"
"2012052","Culmore Primary School","181 CULMORE ROAD","","","LONDONDERRY","LONDONDERRY","BT48 8JH","028 7135 1259","info@culmoreps.londonderry.ni.sch.uk","Primary school","Controlled","55.05097","-7.27161","246603","422864","95","16","2015","0","9","11","13","5","11","11","9","","","","","","","","","4.4","15.68"
"3012282","Culnady Primary School","79 BALLYMACILCURR ROAD","UPPERLANDS","","MAGHERA","LONDONDERRY","BT46 5TT","028 7964 2835","info@culnadyps.maghera.ni.sch.uk","Primary school","Controlled","54.86399","-6.62283","288477","402675","63","9","2015","0","3","1","4","4","3","6","3","","","","","","","","","2.78","8.64"
"2016372","Cumber Claudy Primary School","20 CREGG ROAD","CLAUDY","","LONDONDERRY","LONDONDERRY","BT47 4HX","028 7133 7080","info@cumberclaudy.claudy.ni.sch.uk","Primary school","Controlled","54.91154","-7.16525","253586","407418","199","28","2015","0","19","29","13","28","9","25","16","","","","","","","","","7","19.86"
"4016650","Cumran Primary School","17 THE SQUARE","CLOUGH","DOWNPATRICK","DOWNPATRICK","DOWN","BT30 8RB","4481 1352","info@cumran.clough.ni.sch.uk","Primary school","Controlled","54.29124","-5.84095","340634","340199","203","29","2015","0","20","24","23","22","30","29","21","","","","","","","","","11.1","15.23"
"1010063","Currie Primary School","111-113 LIMESTONE ROAD","","","BELFAST","ANTRIM","BT15 3AB","028 9074 7982","info@currie.belfast.ni.sch.uk","Primary school","Controlled","54.61657","-5.93176","333658","376229","193","28","2015","0","34","28","23","34","18","19","19","","","","","","","","","11.2","15.63"
"3012284","D H Christie Memorial Primary School","45 BALLYCAIRN ROAD","","","COLERAINE","LONDONDERRY","BT51 3HX","028 7034 3740","info@dhchristiememorialps.coleraine.ni.sch.uk","Primary school","Controlled","55.14019","-6.68186","284107","433348","452","60","2015","0","49","58","59","59","58","69","60","","","","","","","","","18","22.89"
"5CA0629","Daisy Chain Day Care","Unit 1 61 Concession Road","Culloville","Crossmaglen","NEWRY","DOWN","BT35 9AP","028 3086 8530","lucy.deery@gmail.com","VP Pre-schools","Other","54.06101","-6.64348","288874","313271","","","2015","","","","","","","","","","","","","","","","","",""
"3420012","Dalriada School","ST JAMES ROAD","","","BALLYMONEY","ANTRIM","BT53 6BL","028 2766 3066","info@dalriada.ballymoney.ni.sch.uk","Secondary (grammar) school","Voluntary","55.07271","-6.52242","294433","426040","815","125","2015","","","","","","","","","128","130","124","126","122","126","116","0","52.54","16.6"
