School Number,School Name,LA Code,Local Authority,Sector,Governance - see notes,WM Code,Welsh Medium Type - see notes,School Type,Religious Character,Address 1,Address 2,Address 3,Address 4,Postcode,Phone Number,Pupils - see notes,fsm_3yr_pct,pupil_teacher_ratio,attendance_pct,school_budget_per_pupil,capped9_points,literacy_points,numeracy_points,science_points,welsh_bacc_points,estyn_report_url,latitude,longitude
6602130,Ysgol Gynradd Amlwch,660,Isle of Anglesey,Primary,Community,WM,Welsh medium,"Nursery, Infants & Juniors",---,Amlwch,Ynys Môn,,,LL68 9DU,01407830414,262,,,,,,,,,,,53.4116301,-4.3475549
6602131,Ysgol Gynradd Beaumaris,660,Isle of Anglesey,Primary,Community,WM,Welsh medium,"Nursery, Infants & Juniors",---,Maeshyfryd,Beaumaris,Ynys Môn,,LL58 8HL,01248810451,40,,,,,,,,,,,53.2646442,-4.1027545
6602132,Ysgol Gynradd Bodedern,660,Isle of Anglesey,Primary,Community,WM,Welsh medium,"Nursery, Infants & Juniors",---,Bodedern,Caergybi,Ynys Môn,,LL65 3TZ,01407740201,98,,,,,,,,,,,53.2933185,-4.499105399999999
6602133,Ysgol Gymuned Bodffordd,660,Isle of Anglesey,Primary,Community,WM,Welsh medium,"Nursery, Infants & Juniors",---,Bodffordd,Llangefni,Ynys Môn,,LL77 7LZ,01248723384,82,,,,,,,,,,,53.2642,-4.36145
6602135,Ysgol Gymuned Bryngwran,660,Isle of Anglesey,Primary,Community,WM,Welsh medium,"Nursery, Infants & Juniors",---,Bryngwran,Caergybi,Ynys Môn,,LL65 3PP,01407720400,43,,,,,,,,,,,53.2687925,-4.4772278
6602136,Ysgol Gynradd Brynsiencyn,660,Isle of Anglesey,Primary,Foundation,WM,Welsh medium,"Nursery, Infants & Juniors",---,Brynsiencyn,Llanfairpwll,Ynys Môn,,LL61 6HZ,01248430457,30,,,,,,,,,,,53.2211356,-4.2040616
6602138,Ysgol Cemaes,660,Isle of Anglesey,Primary,Community,WM,Welsh medium,"Nursery, Infants & Juniors",---,Cemaes,Ynys Môn,,,LL67 0LB,01407710225,65,,,,,,,,,,,53.40816239999999,-4.4558506
6602140,Ysgol Esceifiog,660,Isle of Anglesey,Primary,Community,WM,Welsh medium,Infants & Juniors,---,Y Gaerwen,Ynys Môn,,,LL60 6DD,01248421669,142,,,,,,,,,,,53.2213631,-4.2788623
6602142,Ysgol Gymuned y Ffridd,660,Isle of Anglesey,Primary,Community,WM,Welsh medium,"Nursery, Infants & Juniors",---,Gwalchmai,Caergybi,Ynys Môn,,LL65 4SG,01407720477,87,,,,,,,,,,,53.2535313,-4.4139433
6602145,Ysgol Gymuned Moelfre,660,Isle of Anglesey,Primary,Community,WM,Welsh medium,"Nursery, Infants & Juniors",---,Moelfre,Ynys Môn,,,LL72 8NA,01248410546,55,,,,,,,,,,,53.3538311,-4.2411251
6602146,Ysgol Gynradd Llanbedrgoch,660,Isle of Anglesey,Primary,Community,WM,Welsh medium,"Nursery, Infants & Juniors",---,Llanbedrgoch,Ynys Môn,,,LL76 8SX,01248450291,17,,,,,,,,,,,53.30142799999999,-4.2318922
6602152,Ysgol Gynradd Llanfairpwll,660,Isle of Anglesey,Primary,Foundation,WM,Welsh medium,Infants & Juniors,---,Llanfairpwll,Ynys Môn,,,LL61 5TX,01248714478,335,,,,,,,,,,,53.2211356,-4.2040616
6602153,Ysgol Gymuned Llanfechell,660,Isle of Anglesey,Primary,Community,WM,Welsh medium,"Nursery, Infants & Juniors",---,Llanfechell,Amlwch,Ynys Môn,,LL68 0SA,01407710512,77,,,,,,,,,,,53.3903721,-4.459254
6602154,Ysgol Y Graig,660,Isle of Anglesey,Primary,Community,WM,Welsh medium,"Nursery, Infants & Juniors",---,Ffordd Colleg,Lon Talwrn,Llangefni,Ynys Môn,LL77 7LP,01248723092,357,,,,,,,,,,,53.260931,-4.2972734
6602155,YSGOL GYNRADD LLANGOED,660,Isle of Anglesey,Primary,Community,WM,Welsh medium,"Nursery, Infants & Juniors",---,Llangoed,Beaumaris,Ynys Môn,,LL58 8LU,01248490680,87,,,,,,,,,,,53.2918033,-4.0904224
6602156,Ysgol Henblas,660,Isle of Anglesey,Primary,Community,WM,Welsh medium,Infants & Juniors,---,Llangristiolus,Bodorgan,Ynys Môn,,LL62 5DR,01248723944,94,,,,,,,,,,,53.23581799999999,-4.3540155
6602157,Ysgol Gymuned Llannerch-y-medd,660,Isle of Anglesey,Primary,Community,WM,Welsh medium,"Nursery, Infants & Juniors",---,Llanerchymedd,Ynys Môn,,,LL71 8DP,01248470466,132,,,,,,,,,,,53.3313345,-4.3755613
6602160,Ysgol Pencarnisiog,660,Isle of Anglesey,Primary,Community,WM,Welsh medium,"Nursery, Infants & Juniors",---,Pencarnisiog,Ty Croes,Ynys Môn,,LL63 5RY,01407810622,72,,,,,,,,,,,53.2349186,-4.469570099999999
6602161,Ysgol Gymuned Pentraeth,660,Isle of Anglesey,Primary,Community,WM,Welsh medium,"Nursery, Infants & Juniors",---,Pentraeth,Ynys Môn,,,LL75 8UP,01248450315,87,,,,,,,,,,,53.28170060000001,-4.2184896
6602162,Ysgol Penysarn,660,Isle of Anglesey,Primary,Community,WM,Welsh medium,"Nursery, Infants & Juniors",---,Penysarn,Ynys Môn,,,LL69 9AZ,01407830678,65,,,,,,,,,,,53.390522,-4.3142169
6602163,Ysgol Santes Gwenfaen,660,Isle of Anglesey,Primary,Community,WM,Welsh medium,"Nursery, Infants & Juniors",---,Rhoscolyn,Caergybi,Ynys Môn,,LL65 2DX,01407860264,110,,,,,,,,,,,53.2473801,-4.6099532
6602164,Ysgol Gynradd Rhosneigr,660,Isle of Anglesey,Primary,Community,WM,Welsh medium,"Nursery, Infants & Juniors",---,Rhosneigr,Ynys Môn,,,LL64 5XA,01407810571,90,,,,,,,,,,,53.2312938,-4.517074099999999
6602165,Ysgol Gynradd Rhosybol,660,Isle of Anglesey,Primary,Community,WM,Welsh medium,Infants & Juniors,---,Rhosybol,Amlwch,Ynys Môn,,LL68 9PP,01407830484,74,,,,,,,,,,,53.4116301,-4.3475549
6602168,Ysgol Gymuned y Fali,660,Isle of Anglesey,Primary,Community,WM,Welsh medium,"Nursery, Infants & Juniors",---,Y Fali,Ynys Môn,,,LL65 3EU,01407740518,114,,,,,,,,,,,53.2810516,-4.5686521
6602169,Ysgol Llanfawr,660,Isle of Anglesey,Primary,Community,WM,Welsh medium,"Nursery, Infants & Juniors",---,Caergybi,Ynys Môn,,,LL65 2DS,01407762552,261,,,,,,,,,,,53.3075378,-4.6232955
6602170,Ysgol Goronwy Owen,660,Isle of Anglesey,Primary,Community,WM,Welsh medium,Infants & Juniors,---,Benllech,Ynys Môn,,,LL74 8SG,01248852667,148,,,,,,,,,,,53.32166789999999,-4.228651699999999
6602173,Ysgol Gynradd Y Tywyn,660,Isle of Anglesey,Primary,Community,WM,Welsh medium,"Nursery, Infants & Juniors",---,Caergeiliog,Ynys Môn,,,LL65 3LW,01407740781,116,,,,,,,,,,,53.2933185,-4.499105399999999
6602174,Ysgol Gynradd Llandegfan,660,Isle of Anglesey,Primary,Community,WM,Welsh medium,Infants & Juniors,---,Llandegfan,Porthaethwy,Ynys Môn,,LL59 5UW,01248713431,164,,,,,,,,,,,53.2438856,-4.1467076
6602175,Ysgol Gynradd y Borth,660,Isle of Anglesey,Primary,Community,WM,Welsh medium,Infants & Juniors,---,Porthaethwy,Ynys Môn,,,LL59 5DS,01248713000,212,,,,,,,,,,,53.2295653,-4.1692576
6602176,Ysgol Gynradd Kingsland,660,Isle of Anglesey,Primary,Community,WM,Welsh medium,"Nursery, Infants & Juniors",---,Caergybi,Ynys Môn,,,LL65 2TH,01407763295,175,,,,,,,,,,,53.3003675,-4.6259613
6602177,Ysgol Gymraeg Morswyn,660,Isle of Anglesey,Primary,Community,WM,Welsh medium,"Nursery, Infants & Juniors",---,Caergybi,Ynys Môn,,,LL65 2PU,01407762233,185,,,,,,,,,,,53.3009305,-4.623201
6602226,Ysgol Gynradd Corn Hir,660,Isle of Anglesey,Primary,Community,WM,Welsh medium,Infants & Juniors,---,Llangefni,Ynys Môn,,,LL77 7JB,01248722558,315,,,,,,,,,,,53.2601243,-4.3262068
6602227,Rhyd y Llan,660,Isle of Anglesey,Primary,Community,WM,Welsh medium,"Nursery, Infants & Juniors",---,Llanfaethlu,Caergybi,Ynys Môn,,LL65 4PQ,01407887922,125,,,,,,,,,,,53.3536119,-4.5343604
6602228,Ysgol Parc y Bont,660,Isle of Anglesey,Primary,Community,WM,Welsh medium,"Nursery, Infants & Juniors",---,Llanddaniel Fab,,,Ynys Môn,LL60 6ES,01248422350,107,,,,,,,,,,,53.2118282,-4.2525408
6603036,Cybi,660,Isle of Anglesey,Primary,Community,WM,Welsh medium,"Nursery, Infants & Juniors",Church in Wales,Ffordd Garreglwyd,,,CAERGYBI,LL65 1NS,01407883150,446,,,,,,,,,,,53.30992879999999,-4.6410889
6603037,Ysgol Santes Dwynwen,660,Isle of Anglesey,Primary,Voluntary controlled,WM,Welsh medium,"Nursery, Infants & Juniors",Church in Wales,Niwbwrch,,,Ynys Môn,LL61 6TE,01248663894,113,,,,,,,,,,,53.1674344,-4.3582539
6603304,Ysgol Santes Fair,660,Isle of Anglesey,Primary,Voluntary aided,EM,English medium,"Nursery, Infants & Juniors",Roman Catholic,Longford Road,Holyhead,Anglesey,,LL65 1TR,01407763176,107,,,,,,,,,,,53.3082869,-4.6344733
6604025,Ysgol Syr Thomas Jones,660,Isle of Anglesey,Secondary,Community,BB,Bilingual (Type B),Secondary (ages 11-19),---,Pentrefelin,Amlwch,Ynys Mon,,LL68 9TH,01407830287,539,,,,,,,,,,,53.4033818,-4.3510804
6604026,Ysgol Uwchradd Caergybi,660,Isle of Anglesey,Secondary,Community,EW,English with significant Welsh,Secondary (ages 11-19),---,Caergybi,Ynys Môn,,,LL65 1NP,01407762219,843,,,,,,,,,,,53.3108431,-4.639342399999999
6604027,Ysgol Gyfun Llangefni,660,Isle of Anglesey,Secondary,Community,BB,Bilingual (Type B),Secondary (ages 11-19),---,Llangefni,Ynys Môn,,,LL77 7NG,01248723441,736,,,,,,,,,,,53.2558455,-4.320662
6604028,Ysgol David Hughes,660,Isle of Anglesey,Secondary,Community,BB,Bilingual (Type B),Secondary (ages 11-19),---,Ffordd Pentraeth,Porthaethwy,Ynys Môn,,LL59 5SS,01248712287,1097,,,,,,,,,,,53.2287294,-4.176842199999999
6604029,Ysgol Uwchradd Bodedern,660,Isle of Anglesey,Secondary,Community,BB,Bilingual (Type B),Secondary (ages 11-19),---,Bro Alaw,Bodedern,Caergybi,Ynys Môn,LL65 3TL,01407741000,766,,,,,,,,,,,53.2909249,-4.5048944
6605200,Ysgol Caergeiliog,660,Isle of Anglesey,Primary,Foundation,DS,Dual Stream,"Nursery, Infants & Juniors",---,Caergeiliog,Caergybi,Ynys Môn,,LL65 3NP,01407740619,334,,,,,,,,,,,53.27515,-4.532699
6607011,Canolfan Addysg y Bont,660,Isle of Anglesey,Special,Not Applicable,0 ,Not available,Special (with post-16 provision),---,Ffordd Cildwrn,Llangefni,Ynys Mon,,LL77 7PG,01248750151,118,,,,,,,,,,,53.2574775,-4.321115499999999
6612000,Ysgol Gwaun Gyfni,661,Gwynedd,Primary,Community,WM,Welsh medium,"Nursery, Infants & Juniors",---,Deiniolen,Gwynedd,,,LL55 3LT,01286870687,130,,,,,,,,,,,53.1474268,-4.1284965
6612004,YSGOL GYNRADD NEFYN,661,Gwynedd,Primary,Community,WM,Welsh medium,"Nursery, Infants & Juniors",---,Ffordd Dewi Sant,Nefyn,Pwllheli,Gwynedd,LL53 6EA,01758720765,137,,,,,,,,,,,52.9356585,-4.5248153
6612006,Ysgol Llanrug,661,Gwynedd,Primary,Community,WM,Welsh medium,"Nursery, Infants & Juniors",---,Caernarfon,Gwynedd,,,LL55 4AL,01286674905,250,,,,,,,,,,,53.1469921,-4.1919423
6612008,Ysgol Gynradd Abererch,661,Gwynedd,Primary,Community,WM,Welsh medium,"Nursery, Infants & Juniors",---,Abererch,Pwllheli,Gwynedd,,LL53 6YU,01758613441,70,,,,,,,,,,,52.903242,-4.3851895
6612010,YSGOL BEDDGELERT,661,Gwynedd,Primary,Community,WM,Welsh medium,"Nursery, Infants & Juniors",---,Beddgelert,Gwynedd,,,LL55 4UY,01766890307,31,,,,,,,,,,,53.012377,-4.1055891
6612011,Ysgol Bethel,661,Gwynedd,Primary,Community,WM,Welsh medium,"Nursery, Infants & Juniors",---,Caernarfon,Gwynedd,,,LL55 1AX,01248670663,149,,,,,,,,,,,53.1652145,-4.205025
6612013,Ysgol Bodfeurig,661,Gwynedd,Primary,Community,WM,Welsh medium,"Nursery, Infants & Juniors",---,Tregarth,Gwynedd,,,LL57 4RN,01248600760,55,,,,,,,,,,,53.1781762,-4.0900309
6612015,YSGOL GYNRADD BORTH-Y-GEST,661,Gwynedd,Primary,Community,WM,Welsh medium,"Nursery, Infants & Juniors",---,Porthmadog,Gwynedd,,,LL49 9UF,01766513285,31,,,,,,,,,,,52.9150928,-4.1361916
6612017,Ysgol Brynaerau,661,Gwynedd,Primary,Community,WM,Welsh medium,"Nursery, Infants & Juniors",---,Pontllyfni,Caernarfon,Gwynedd,,LL54 5EU,01286660428,64,,,,,,,,,,,53.0413801,-4.3259089
6612026,Ysgol Y Gelli,661,Gwynedd,Primary,Community,WM,Welsh medium,"Nursery, Infants & Juniors",---,Ffordd Bethel,Caernarfon,Gwynedd,,LL55 1DU,01286674847,230,,,,,,,,,,,53.1486879,-4.257406
6612028,Ysgol Penybryn,661,Gwynedd,Primary,Community,WM,Welsh medium,Juniors,---,Bethesda,Gwynedd,,,LL57 3BE,01248600375,117,,,,,,,,,,,53.1808128,-4.0574455
6612033,Ysgol Treferthyr,661,Gwynedd,Primary,Community,WM,Welsh medium,"Nursery, Infants & Juniors",---,Ysgol Treferthyr,Ffordd Pwllheli,Cricieth,Gwynedd,LL52 0RR,01766522300,115,,,,,,,,,,,52.9186776,-4.2432083
6612036,Ysgol Gynradd Chwilog,661,Gwynedd,Primary,Community,WM,Welsh medium,"Nursery, Infants & Juniors",---,Chwilog,Pwllheli,Gwynedd,,LL53 6PS,01766810627,89,,,,,,,,,,,52.92025229999999,-4.334150999999999
6612039,YSGOL CRUD-Y-WERIN,661,Gwynedd,Primary,Community,WM,Welsh medium,"Nursery, Infants & Juniors",---,Aberdaron,Pwllheli,Gwynedd,,LL53 8BP,01758760205,61,,,,,,,,,,,52.8075981,-4.7101893
6612042,Ysgol Dolbadarn,661,Gwynedd,Primary,Community,WM,Welsh medium,"Nursery, Infants & Juniors",---,Llanberis,Gwynedd,,,LL55 4SH,01286870711,140,,,,,,,,,,,53.1181025,-4.1281004
6612046,Ysgol Gynradd Edern,661,Gwynedd,Primary,Community,WM,Welsh medium,"Nursery, Infants & Juniors",---,Ffordd y Rhos,Edern,Pwllheli,Gwynedd,LL53 8YW,01758720272,77,,,,,,,,,,,52.9234976,-4.5649692
6612048,Ysgol Bro Plenydd,661,Gwynedd,Primary,Community,WM,Welsh medium,"Nursery, Infants & Juniors",---,Y Ffor,Pwllheli,Gwynedd,,LL53 6UP,01766810625,86,,,,,,,,,,,52.9260025,-4.385324
6612049,Ysgol Gynradd Garndolbenmaen,661,Gwynedd,Primary,Community,WM,Welsh medium,"Nursery, Infants & Juniors",---,Garndolbenmaen,Gwynedd,,,LL51 9SZ,01766530626,21,,,,,,,,,,,52.9724503,-4.242433999999999
6612060,Ysgol Gynradd Llanbedrog,661,Gwynedd,Primary,Community,WM,Welsh medium,"Nursery, Infants & Juniors",---,Llanbedrog,Pwllheli,Gwynedd,,LL53 7NU,01758740631,96,,,,,,,,,,,52.85899,-4.488697
6612066,Ysgol Gynradd Llangybi,661,Gwynedd,Primary,Community,WM,Welsh medium,"Nursery, Infants & Juniors",---,Llangybi,Pwllheli,Gwynedd,,LL53 6DQ,01766810564,29,,,,,,,,,,,52.9415065,-4.3530103
6612069,Ysgol Llanllechid,661,Gwynedd,Primary,Community,WM,Welsh medium,"Nursery, Infants & Juniors",---,Llanllechid,Bangor,Gwynedd,,LL57 3EH,01248600600,277,,,,,,,,,,,53.1886805,-4.0656284
6612070,Ysgol Gynradd Llanllyfni,661,Gwynedd,Primary,Community,WM,Welsh medium,"Nursery, Infants & Juniors",---,Llanllyfni,Caernarfon,Gwynedd,,LL54 6SH,01286880729,66,,,,,,,,,,,53.0412535,-4.2829028
6612075,YSGOL BABANOD MORFA NEFYN,661,Gwynedd,Primary,Community,WM,Welsh medium,"Nursery, Infants & Juniors",---,Morfa Nefyn,Pwllheli,Gwynedd,,LL53 6AR,01758720870,23,,,,,,,,,,,52.93104169999999,-4.5491043
6612078,Ysgol Baladeulyn,661,Gwynedd,Primary,Community,WM,Welsh medium,"Nursery, Infants & Juniors",---,Nantlle,Caernarfon,Gwynedd,,LL54 6BT,01286880884,19,,,,,,,,,,,53.05804,-4.2152018
6612081,Ysgol Gynradd Nebo,661,Gwynedd,Primary,Community,WM,Welsh medium,"Nursery, Infants & Juniors",---,Nebo,Caernarfon,Gwynedd,,LL54 6EE,01286881273,14,,,,,,,,,,,53.02995199999999,-4.269502399999999
6612085,Ysgol Gymuned Penisarwaun,661,Gwynedd,Primary,Community,WM,Welsh medium,"Nursery, Infants & Juniors",---,Penisarwaen,Caernarfon,Gwynedd,,LL55 3BW,01286870879,45,,,,,,,,,,,53.1526867,-4.1627864
6612089,Ysgol Bro Lleu,661,Gwynedd,Primary,Community,WM,Welsh medium,"Nursery, Infants & Juniors",---,Penygroes,Caernarfon,Gwynedd,,LL54 6RL,01286880883,201,,,,,,,,,,,53.0536857,-4.2778022
6612093,YSGOL GYNRADD  PENTREUCHAF,661,Gwynedd,Primary,Community,WM,Welsh medium,"Nursery, Infants & Juniors",---,Pentreuchaf,Pwllheli,Gwynedd,,LL53 8DZ,01758750600,93,,,,,,,,,,,52.9282353,-4.4512254
6612097,Ysgol Rhiwlas,661,Gwynedd,Primary,Community,WM,Welsh medium,"Nursery, Infants & Juniors",---,Rhiwlas,Bangor,Gwynedd,,LL57 4EH,01248352483,34,,,,,,,,,,,53.1730248,-4.131171999999999
6612098,Ysgol Gynradd Rhosgadfan,661,Gwynedd,Primary,Community,WM,Welsh medium,"Nursery, Infants & Juniors",---,Rhosgadfan,Caernarfon,Gwynedd,,LL54 7EU,01286830160,45,,,,,,,,,,,53.0911651,-4.2308538
6612099,Ysgol Gynradd Rhostryfan,661,Gwynedd,Primary,Community,WM,Welsh medium,"Nursery, Infants & Juniors",---,Rhostryfan,Caernarfon,Gwynedd,,LL54 7LR,01286830727,80,,,,,,,,,,,53.0911651,-4.2308538
6612103,YSGOL SARN BACH,661,Gwynedd,Primary,Community,WM,Welsh medium,"Nursery, Infants & Juniors",---,Sarn Bach,Pwllheli,Gwynedd,,LL53 7LF,01758712714,34,,,,,,,,,,,52.81062559999999,-4.5193869
6612104,Ysgol Eifion Wyn,661,Gwynedd,Primary,Community,WM,Welsh medium,"Nursery, Infants & Juniors",---,Porthmadog,Gwynedd,,,LL49 9NU,01766513286,213,,,,,,,,,,,52.92943959999999,-4.1364458
6612108,Ysgol Gynradd Talysarn,661,Gwynedd,Primary,Community,WM,Welsh medium,"Nursery, Infants & Juniors",---,COED MADOG,TALYSARN,Gwynedd,,LL54 6HR,01286880885,98,,,,,,,,,,,53.05458909999999,-4.2552196
6612110,YSGOL Y GORLAN,661,Gwynedd,Primary,Community,WM,Welsh medium,"Nursery, Infants & Juniors",---,Tremadog,Porthmadog,Gwynedd,,LL49 9RN,01766512773,115,,,,,,,,,,,52.939681,-4.1476819
6612111,Ysgol yr Eifl,661,Gwynedd,Primary,Community,WM,Welsh medium,"Nursery, Infants & Juniors",---,Trefor,Caernarfon,Gwynedd,,LL54 5LU,01286660523,49,,,,,,,,,,,52.9930265,-4.4235789
6612112,YSGOL GYNRADD TUDWEILIOG,661,Gwynedd,Primary,Community,WM,Welsh medium,"Nursery, Infants & Juniors",---,Tudweiliog,Pwllheli,Gwynedd,,LL53 8ND,01758770669,46,,,,,,,,,,,52.8987682,-4.623559699999999
6612113,Ysgol Waunfawr,661,Gwynedd,Primary,Community,WM,Welsh medium,"Nursery, Infants & Juniors",---,Waunfawr,Caernarfon,Gwynedd,,LL55 4LJ,01286650451,120,,,,,,,,,,,53.1118289,-4.2060347
6612116,Ysgol Glancegin,661,Gwynedd,Primary,Community,WM,Welsh medium,"Nursery, Infants & Juniors",---,Maesgeirchen,Bangor,Gwynedd,,LL57 1ST,01248353097,219,,,,,,,,,,,53.2259384,-4.1172959
6612119,Ysgol Yr Hendre,661,Gwynedd,Primary,Community,WM,Welsh medium,"Nursery, Infants & Juniors",---,Caernarfon,Gwynedd,,,LL55 2AT,01286674332,402,,,,,,,,,,,53.1365117,-4.2595912
6612122,Ysgol Bontnewydd,661,Gwynedd,Primary,Community,WM,Welsh medium,"Nursery, Infants & Juniors",---,Bontnewydd,Caernarfon,Gwynedd,,LL55 2UF,01286673880,207,,,,,,,,,,,53.1148768,-4.268513
6612123,Ysgol Gymraeg y Garnedd,661,Gwynedd,Primary,Community,WM,Welsh medium,"Nursery, Infants & Juniors",---,Ffordd Penrhos,Bangor,Gwynedd,,LL57 2LX,01248352534,400,,,,,,,,,,,53.2156983,-4.1538338
6612125,Ysgol Cymerau,661,Gwynedd,Primary,Community,WM,Welsh medium,"Nursery, Infants & Juniors",---,Ffordd Mela,Pwllheli,Gwynedd,,LL53 5AR,01758612001,269,,,,,,,,,,,52.8824007,-4.417372299999999
6612126,Ysgol Abercaseg (Babanod),661,Gwynedd,Primary,Community,WM,Welsh medium,Nursery & Infants,---,Bethesda,Bangor,Gwynedd,,LL57 3PL,01248600194,84,,,,,,,,,,,53.1776622,-4.0544972
6612127,Ysgol y Felinheli,661,Gwynedd,Primary,Community,WM,Welsh medium,"Nursery, Infants & Juniors",---,Felinheli,Gwynedd,,,LL56 4TZ,01248670748,171,,,,,,,,,,,53.1767918,-4.216686999999999
6612181,Ysgol y Traeth,661,Gwynedd,Primary,Community,WM,Welsh medium,"Nursery, Infants & Juniors",---,Abermaw,Gwynedd,,,LL42 1HH,01341280479,180,,,,,,,,,,,52.7248201,-4.0611418
6612185,Ysgol Gynradd Dyffryn Dulas,661,Gwynedd,Primary,Community,WM,Welsh medium,"Nursery, Infants & Juniors",---,Corris,Machynlleth,Powys,,SY20 9TQ,01654761622,31,,,,,,,,,,,52.653161,-3.8411572
6612189,Ysgol Gynradd Dyffryn Ardudwy,661,Gwynedd,Primary,Community,WM,Welsh medium,Infants & Juniors,---,Dyffryn Ardudwy,Gwynedd,,,LL44 2EP,01341247294,63,,,,,,,,,,,52.784349,-4.0950408
6612190,Ysgol Bro Cynfal,661,Gwynedd,Primary,Community,WM,Welsh medium,"Nursery, Infants & Juniors",---,Ffestiniog,Blaenau Ffestiniog,Gwynedd,,LL41 4NF,01766762668,29,,,,,,,,,,,52.9585091,-3.9322942
6612192,Ysgol Edmwnd Prys,661,Gwynedd,Primary,Community,WM,Welsh medium,"Nursery, Infants & Juniors",---,Gellilydan,Blaenau Ffestiniog,Gwynedd,,LL41 4DY,01766590348,21,,,,,,,,,,,52.9394283,-3.9595175
6612194,Ysgol Gynradd Llanbedr,661,Gwynedd,Primary,Community,WM,Welsh medium,Infants & Juniors,---,Llanbedr,Gwynedd,,,LL45 2NW,01341241422,45,,,,,,,,,,,52.8214935,-4.0961262
6612198,YSGOL Y GARREG,661,Gwynedd,Primary,Community,WM,Welsh medium,"Nursery, Infants & Juniors",---,Llanfrothen,Penrhyndeudraeth,Gwynedd,,LL48 6LJ,01766770727,16,,,,,,,,,,,52.9542107,-4.063355899999999
6612199,Ysgol O M Edwards,661,Gwynedd,Primary,Community,WM,Welsh medium,"Nursery, Infants & Juniors",---,Llanuwchllyn,Bala,Gwynedd,,LL23 7UB,01678540242,85,,,,,,,,,,,52.8597541,-3.674783399999999
6612205,Ysgol Manod,661,Gwynedd,Primary,Community,WM,Welsh medium,"Nursery, Infants & Juniors",---,Blaenau Ffestiniog,Gwynedd,,,LL41 4AF,01766830272,93,,,,,,,,,,,52.9845208,-3.9311026
6612207,Ysgol Gynradd Pennal,661,Gwynedd,Primary,Community,WM,Welsh medium,"Nursery, Infants & Juniors",---,Pennal,Machynlleth,Gwynedd,,SY20 9JT,01654791225,29,,,,,,,,,,,52.5859263,-3.9219005
6612208,Ysgol Cefn Coch,661,Gwynedd,Primary,Community,WM,Welsh medium,"Nursery, Infants & Juniors",---,Penrhyndeudraeth,Gwynedd,,,LL48 6AE,01766770291,159,,,,,,,,,,,52.9297377,-4.0681989
6612210,Ysgol Talsarnau,661,Gwynedd,Primary,Community,WM,Welsh medium,"Nursery, Infants & Juniors",---,Talsarnau,Gwynedd,,,LL47 6TA,01766770768,24,,,,,,,,,,,52.9016027,-4.066943699999999
6612211,Ysgol Gynradd Tanygrisiau,661,Gwynedd,Primary,Community,WM,Welsh medium,"Nursery, Infants & Juniors",---,Blaenau Ffestiniog,Gwynedd,,,LL41 3SU,01766830795,39,,,,,,,,,,,52.9864457,-3.957460599999999
6612212,Ysgol Gynradd Penybryn,661,Gwynedd,Primary,Community,WM,Welsh medium,Infants & Juniors,---,Tywyn,Gwynedd,,,LL36 9EF,01654710237,236,,,,,,,,,,,52.5852806,-4.0832649
6612213,Ysgol Bro Hedd Wyn,661,Gwynedd,Primary,Community,WM,Welsh medium,"Nursery, Infants & Juniors",---,Trawsfynydd,Blaenau Ffestiniog,Gwynedd,,LL41 4SE,01766540247,57,,,,,,,,,,,52.9011132,-3.922467
6612214,Ysgol Bro Tryweryn,661,Gwynedd,Primary,Community,WM,Welsh medium,"Nursery, Infants & Juniors",---,Frongoch,Bala,Gwynedd,,LL23 7NT,01678520740,60,,,,,,,,,,,52.9393352,-3.6314542
6612219,Ysgol Tanycastell,661,Gwynedd,Primary,Community,WM,Welsh medium,"Nursery, Infants & Juniors",---,Harlech,Gwynedd,,,LL46 2UE,01766780454,82,,,,,,,,,,,52.8637463,-4.1067467
6612220,Ysgol Ffridd y LLyn,661,Gwynedd,Primary,Community,WM,Welsh medium,"Nursery, Infants & Juniors",---,Cefnddwysarn,Bala,Gwynedd,,LL23 7HE,01678530373,44,,,,,,,,,,,52.93274690000001,-3.5384913
6612221,Ysgol Maenofferen,661,Gwynedd,Primary,Community,WM,Welsh medium,"Nursery, Infants & Juniors",---,Blaenau Ffestiniog,Gwynedd,,,LL41 3UL,01766831256,219,,,,,,,,,,,52.9943854,-3.938337
6612227,Ysgol Hirael,661,Gwynedd,Primary,Community,WM,Welsh medium,"Nursery, Infants & Juniors",---,Orme Road,Bangor,Gwynedd,,LL57 1BA,01248352182,207,,,,,,,,,,,53.2314032,-4.1219611
6612228,Ysgol Craig y Deryn,661,Gwynedd,Primary,Community,WM,Welsh medium,"Nursery, Infants & Juniors",---,Llanegryn,Gwynedd,,,LL36 9SG,01654710463,95,,,,,,,,,,,52.62589879999999,-4.072672499999999
6612229,Ysgol Bro Llifon,661,Gwynedd,Primary,Community,WM,Welsh medium,"Nursery, Infants & Juniors",---,Groeslon,Caernarfon,,,LL54 7DT,01286831033,150,,,,,,,,,,,53.0777827,-4.275474
6613004,YSGOL PONT Y GOF,661,Gwynedd,Primary,Voluntary controlled,WM,Welsh medium,"Nursery, Infants & Juniors",Church in Wales,Botwnnog,Pwllheli,Gwynedd,,LL53 8RA,01758730318,96,,,,,,,,,,,52.849464,-4.586417
6613005,Ysgol Gynradd Maesincla,661,Gwynedd,Primary,Voluntary controlled,WM,Welsh medium,"Nursery, Infants & Juniors",Church in Wales,Maesincla Caernarfon,Gwynedd,,,LL55 1DF,01286673787,279,,,,,,,,,,,53.1423072,-4.2600612
6613009,Ysgol Y Faenol,661,Gwynedd,Primary,Voluntary controlled,WM,Welsh medium,"Nursery, Infants & Juniors",Church in Wales,Penrhosgarnedd,Bangor,Gwynedd,,LL57 2NN,01248352162,217,,,,,,,,,,,53.2082018,-4.168845699999999
6613010,YSGOL FOEL GRON,661,Gwynedd,Primary,Voluntary controlled,WM,Welsh medium,"Nursery, Infants & Juniors",Church in Wales,Mynytho,Pwllheli,Gwynedd,,LL53 7RN,01758740567,34,,,,,,,,,,,52.85093269999999,-4.5219862
6613013,Ysgol Llandygai,661,Gwynedd,Primary,Voluntary controlled,WM,Welsh medium,"Nursery, Infants & Juniors",Church in Wales,Llandygai,Bangor,Gwynedd,,LL57 4HU,01248352163,97,,,,,,,,,,,53.2170129,-4.0985051
6613018,Ysgol Gynradd Llandwrog,661,Gwynedd,Primary,Voluntary controlled,WM,Welsh medium,"Nursery, Infants & Juniors",Church in Wales,Llandwrog,Caernarfon,Gwynedd,,LL54 5ST,01286830223,43,,,,,,,,,,,53.1423072,-4.2600612
6613023,Ysgol Gynradd Llanystumdwy,661,Gwynedd,Primary,Voluntary controlled,WM,Welsh medium,"Nursery, Infants & Juniors",Church in Wales,Llanystumdwy,Criccieth,Gwynedd,,LL52 0SP,01766522961,24,,,,,,,,,,,52.9227333,-4.2725195
6613029,Ysgol Tregarth,661,Gwynedd,Primary,Voluntary controlled,WM,Welsh medium,"Nursery, Infants & Juniors",Church in Wales,Tregarth,Bangor,Gwynedd,,LL57 4PG,01248600735,118,,,,,,,,,,,53.1902505,-4.0869732
6613030,Ysgol Cae Top,661,Gwynedd,Primary,Voluntary controlled,WM,Welsh medium,"Nursery, Infants & Juniors",Church in Wales,Ffordd Eithinog,Bangor,Gwynedd,,LL57 2GZ,01248352325,235,,,,,,,,,,,53.2186745,-4.153152
6613300,Ysgol Santes Helen,661,Gwynedd,Primary,Voluntary aided,WM,Welsh medium,"Nursery, Infants & Juniors",Roman Catholic,Twtil,Caernarfon,Gwynedd,,LL55 1PF,01286674856,39,,,,,,,,,,,53.1428954,-4.269590099999999
6613301,Ysgol Ein Harglwyddes,661,Gwynedd,Primary,Voluntary aided,EW,English with significant Welsh,"Nursery, Infants & Juniors",Roman Catholic,Caernarfon Road,Bangor,Gwynedd,,LL57 2UT,01248352463,159,,,,,,,,,,,53.2216977,-4.1346299
6614002,Ysgol Dyffryn Ogwen Bethesda,661,Gwynedd,Secondary,Community,AB,Bilingual (Type A),Secondary (ages 11-19),---,Ffordd Coetmor,Bethesda,Gwynedd,,LL57 3NN,01248600291,367,,,,,,,,,,,53.1827087,-4.0648813
6614003,Ysgol Botwnnog,661,Gwynedd,Secondary,Community,WM,Welsh medium,Secondary (ages 11-16),---,Botwnnog,Llyn,Gwynedd,,LL53 8PY,01758730220,491,,,,,,,,,,,52.8529026,-4.5821299
6614004,Ysgol Brynrefail,661,Gwynedd,Secondary,Community,AB,Bilingual (Type A),Secondary (ages 11-19),---,Llanrug,Caernarfon,Gwynedd,,LL55 4AD,01286672381,775,,,,,,,,,,,53.1504895,-4.1913854
6614007,Ysgol Dyffryn Nantlle,661,Gwynedd,Secondary,Community,AB,Bilingual (Type A),Secondary (ages 11-19),---,Ffordd Y Brenin,Penygroes,Gwynedd,,LL54 6AA,01286880345,393,,,,,,,,,,,53.0544007,-4.2783821
6614009,YSGOL EIFIONYDD,661,Gwynedd,Secondary,Community,AB,Bilingual (Type A),Secondary (ages 11-16),---,Porthmadog,Gwynedd,,,LL49 9HS,01766512114,362,,,,,,,,,,,52.93188019999999,-4.1311371
6614031,Ysgol Y Moelwyn,661,Gwynedd,Secondary,Community,WM,Welsh medium,Secondary (ages 11-16),---,Heol Wynne,Blaenau Ffestiniog,Gwynedd,,LL41 3DW,01766830435,355,,,,,,,,,,,52.9920793,-3.9380914
6614032,YSGOL UWCHRADD TYWYN,661,Gwynedd,Secondary,Community,AB,Bilingual (Type A),Secondary (ages 11-16),---,Station Road,Tywyn,Gwynedd,,LL36 9EU,01654710256,393,,,,,,,,,,,52.5847129,-4.0895428
6614034,Ysgol Ardudwy,661,Gwynedd,Secondary,Community,AB,Bilingual (Type A),Secondary (ages 11-16),---,Ffordd y Traeth,Harlech,Gwynedd,,LL46 2UH,01766780331,334,,,,,,,,,,,52.861912,-4.111530999999999
6614036,Ysgol Friars,661,Gwynedd,Secondary,Community,EW,English with significant Welsh,Secondary (ages 11-19),---,Lon y Bryn,Bangor,Gwynedd,,LL57 2LN,01248364905,1413,,,,,,,,,,,53.22307199999999,-4.143603
6614037,Ysgol Tryfan,661,Gwynedd,Secondary,Community,AB,Bilingual (Type A),Secondary (ages 11-19),---,Lon Powys,Bangor,Gwynedd,,LL57 2TY,01248352633,534,,,,,,,,,,,53.2200921,-4.1449278
6614039,Ysgol Syr Hugh Owen,661,Gwynedd,Secondary,Community,AB,Bilingual (Type A),Secondary (ages 11-19),---,Bethel Road,Caernarfon,Gwynedd,,LL55 1HW,01286673076,918,,,,,,,,,,,53.1462391,-4.2632628
6614040,Ysgol Glan y Mor,661,Gwynedd,Secondary,Community,AB,Bilingual (Type A),Secondary (ages 11-16),---,Ffordd Caerdydd,Pwllheli,Gwynedd,,LL53 5NU,01758701244,469,,,,,,,,,,,52.8819147,-4.422526899999999
6615500,Bro Idris,661,Gwynedd,Middle,Community,AB,Bilingual (Type A),Middle (ages 3-16),---,Dolgellau,,,Gwynedd,LL40 1HY,01341424949,572,,,,,,,,,,,52.7413649,-3.8798256
6615501,YSGOL Godre'r Berwyn,661,Gwynedd,Middle,Community,WM,Welsh medium,Middle (ages 3-19),---,Heol Ffrydan,,,Bala,LL23 7RU,01678520259,569,,,,,,,,,,,52.9131535,-3.597742199999999
6617002,Ysgol Pendalar,661,Gwynedd,Special,Not Applicable,0 ,Not available,Special (with post-16 provision),---,Ffordd Bethel,Caernarfon,Gwynedd,,LL55 1DU,01286672141,107,,,,,,,,,,,53.14912880000001,-4.258925899999999
6617010,Ysgol Hafod Lon,661,Gwynedd,Special,Not Applicable,0 ,Not available,Special (with post-16 provision),---,Parc Busnes Eryri, Penrhyndeudraeth,Gwynedd,,LL48 6LD,01766772140,113,,,,,,,,,,,52.9241211,-4.0804111
6622012,Ysgol Betws y Coed,662,Conwy,Primary,Community,WM,Welsh medium,"Nursery, Infants & Juniors",---,Bro Gethun,Betws-Y-Coed,Conwy,,LL24 0BP,01690710581,18,,,,,,,,,,,53.09263809999999,-3.8187165
6622023,Ysgol Capelulo,662,Conwy,Primary,Community,EW,English with significant Welsh,"Nursery, Infants & Juniors",---,Ffordd Treforus,Dwygyfylchi,Penmaenmawr,Conwy,LL34 6RA,01492622693,142,,,,,,,,,,,53.27450899999999,-3.903711899999999
6622038,Ysgol Deganwy,662,Conwy,Primary,Community,EW,English with significant Welsh,"Nursery, Infants & Juniors",---,Park Drive,Deganwy,Conwy,,LL31 9YB,01492574600,336,,,,,,,,,,,53.2926243,-3.8214292
6622043,Ysgol Dolwyddelan,662,Conwy,Primary,Community,WM,Welsh medium,"Nursery, Infants & Juniors",---,Dolwyddelan,,,,LL25 0SZ,01690750293,28,,,,,,,,,,,53.0519539,-3.884991
6622044,Ysgol Ffordd Dyffryn,662,Conwy,Primary,Community,EW,English with significant Welsh,"Nursery, Infants & Juniors",---,Ffordd Dyffryn,Llandudno,Conwy,,LL30 2LZ,01492878907,169,,,,,,,,,,,53.3170709,-3.8350137
6622053,Ysgol Glanwydden,662,Conwy,Primary,Community,EW,English with significant Welsh,"Nursery, Infants & Juniors",---,Ffordd Derwen,Bae Penrhyn,Llandudno,Conwy,LL30 3LB,01492540798,311,,,,,,,,,,,53.31067669999999,-3.7789234
6622061,Ysgol Tudno,662,Conwy,Primary,Community,EW,English with significant Welsh,"Nursery, Infants & Juniors",---,Trinity Avenue,Llandudno,,,LL30 2SJ,01492875252,180,,,,,,,,,,,53.3198891,-3.830810699999999
6622063,Ysgol Morfa Rhianedd,662,Conwy,Primary,Community,WM,Welsh medium,"Nursery, Infants & Juniors",---,Ffordd Cwm,Llandudno,Conwy,,LL30 1EG,01492577150,153,,,,,,,,,,,53.3166384,-3.8261903
6622086,Ysgol Penmachno,662,Conwy,Primary,Community,WM,Welsh medium,"Nursery, Infants & Juniors",---,Penmachno,Betws-Y-Coed,Conwy,,LL24 0PT,01690760394,43,,,,,,,,,,,53.0407173,-3.8016055
6622103,Ysgol Llandrillo yn Rhos,662,Conwy,Primary,Community,EM,English medium,"Nursery, Infants & Juniors",---,Elwy Road,Llandrillo Yn Rhos,Colwyn Bay,,LL28 4LX,01492549648,440,,,,,,,,,,,53.3112045,-3.7495075
6622104,Ysgol Talhaiarn,662,Conwy,Primary,Community,EW,English with significant Welsh,"Nursery, Infants & Juniors",---,Llanfair Talhaiarn,Abergele,Conwy,,LL22 8SD,01745720242,46,,,,,,,,,,,53.2172214,-3.610275
6622106,Ysgol Babanod Mochdre,662,Conwy,Primary,Community,EM,English medium,Nursery & Infants,---,Station Road,Mochdre,Conwy,,LL28 5EF,01492540194,49,,,,,,,,,,,53.2919974,-3.765914
6622108,Ysgol  T. Gwynn Jones,662,Conwy,Primary,Community,EM,English medium,Nursery & Infants,---,Llanelian Road,Old Colwyn,Colwyn Bay,,LL29 9UA,01492516594,197,,,,,,,,,,,53.2881669,-3.7026782
6622110,Ysgol Maes Owen,662,Conwy,Primary,Community,EM,English medium,Juniors,---,Morfa Avenue,Foryd,Rhyl,,LL18 5LE,01745353721,208,,,,,,,,,,,53.3046875,-3.5251998
6622111,Ysgol Glan Gele,662,Conwy,Primary,Community,EM,English medium,Nursery & Infants,---,Ffordd y Morfa,Abergele,Conwy,,LL22 7NU,01745823584,282,,,,,,,,,,,53.2874021,-3.5750802
6622112,Ysgol Glan Morfa,662,Conwy,Primary,Community,WM,Welsh medium,"Nursery, Infants & Juniors",---,Ffordd y Morfa,Abergele,Conwy,,LL22 7NU,01745832922,251,,,,,,,,,,,53.2874021,-3.5750802
6622114,Ysgol Bod Alaw,662,Conwy,Primary,Community,WM,Welsh medium,"Nursery, Infants & Juniors",---,Abergele Road,Colwyn Bay,,,LL29 7ST,01492530420,324,,,,,,,,,,,53.2881314,-3.7190548
6622115,Ysgol Pant y Rhedyn,662,Conwy,Primary,Community,EW,English with significant Welsh,Juniors,---,Ffordd Penmaenmawr,Llanfairfechan,Conwy,,LL33 0PA,01248680642,128,,,,,,,,,,,53.2581907,-3.9739449
6622118,Ysgol Y Foryd,662,Conwy,Primary,Community,EM,English medium,Nursery & Infants,---,Morfa Avenue,Foryd,Conwy,,LL18 5LE,01745351892,208,,,,,,,,,,,53.3046222,-3.5244014
6622121,Ysgol Craig y Don,662,Conwy,Primary,Community,EW,English with significant Welsh,"Nursery, Infants & Juniors",---,Clarence Drive,Craig Y Don,Llandudno,Conwy,LL30 1TR,01492878906,304,,,,,,,,,,,53.318042,-3.814528
6622123,Ysgol Cerrigydrudion,662,Conwy,Primary,Community,WM,Welsh medium,"Nursery, Infants & Juniors",---,Ffordd Yr Alwen,Cerrigydrudion,Corwen,,LL21 9SW,01490420328,86,,,,,,,,,,,53.0269246,-3.5603629
6622132,"Ysgol Bro Aled, Llansannan",662,Conwy,Primary,Community,WM,Welsh medium,"Nursery, Infants & Juniors",---,Llansannan,Dinbych,Conwy,,LL16 5HN,01745870660,64,,,,,,,,,,,53.17832749999999,-3.6003332
6622148,Ysgol Gynradd Bro Cernyw,662,Conwy,Primary,Community,WM,Welsh medium,"Nursery, Infants & Juniors",---,Llangernyw,Abergele,Conwy,,LL22 8PP,01745860238,106,,,,,,,,,,,53.1906276,-3.6849805
6622221,Ysgol Sant Elfod,662,Conwy,Primary,Community,EM,English medium,Juniors,---,Ffordd Y Morfa,Abergele,Conwy,,LL22 7NU,01745832007,288,,,,,,,,,,,53.2876542,-3.5760156
6622222,Ysgol Capel Garmon,662,Conwy,Primary,Community,WM,Welsh medium,"Nursery, Infants & Juniors",---,Capel Garmon,Llanrwst,Conwy,,LL26 0RL,01690710287,18,,,,,,,,,,,53.0837192,-3.7699875
6622225,Ysgol Glan Conwy,662,Conwy,Primary,Community,EW,English with significant Welsh,"Nursery, Infants & Juniors",---,Ffordd Top Llan,Glan Conwy,Conwy,,LL28 5NA,01492580421,122,,,,,,,,,,,53.2676868,-3.794380499999999
6622264,Ysgol Cynfran,662,Conwy,Primary,Community,EW,English with significant Welsh,"Nursery, Infants & Juniors",---,Dolwen Road,Llysfaen,Colwyn Bay,Conwy,LL29 8SS,01492517326,177,,,,,,,,,,,53.2816631,-3.6571813
6622267,Ysgol Iau Hen Golwyn,662,Conwy,Primary,Community,EM,English medium,Juniors,---,Church Walks,Old Colwyn,Conwy,,LL29 9RU,01492516258,205,,,,,,,,,,,53.2899452,-3.7028522
6622269,Ysgol Cystennin,662,Conwy,Primary,Community,EM,English medium,Juniors,---,The Old Highway,Mochdre,Colwyn Bay,Conwy,LL28 5AU,01492540068,67,,,,,,,,,,,53.2905443,-3.7601022
6622270,Ysgol Pentrefoelas,662,Conwy,Primary,Community,WM,Welsh medium,"Nursery, Infants & Juniors",---,Pentrefoelas,Betws Y Coed,Conwy,,LL24 0LE,01690770226,42,,,,,,,,,,,53.0472338,-3.6813739
6622271,Ysgol Bro Gwydir,662,Conwy,Primary,Community,WM,Welsh medium,"Nursery, Infants & Juniors",---,Heol Watling,Llanrwst,,,LL26 0EY,01492640342,331,,,,,,,,,,,53.1373982,-3.795395999999999
6622272,Ysgol Nant Y Groes,662,Conwy,Primary,Community,EM,English medium,"Nursery, Infants & Juniors",---,Greenfield Road,Colwyn Bay,Conwy,,LL29 8ET,01492577010,250,,,,,,,,,,,53.2938176,-3.7175695
6622273,Ysgol Swn Y Don,662,Conwy,Primary,Community,EM,English medium,"Nursery, Infants & Juniors",---,Penmaenrhos,Swn Y Don,Colwyn Bay,Conwy,LL29 9LL,01492577290,124,,,,,,,,,,,53.2872893,-3.6791985
6622274,Ysgol Awel y Mynydd,662,Conwy,Primary,Community,DS,Dual Stream,"Nursery, Infants & Juniors",---,Sarn Mynach,Llandudno Junction,Conwy,,LL31 9RT,01492577100,397,,,,,,,,,,,53.2861223,-3.7924005
6622275,Ysgol Dyffryn Yr Enfys,662,Conwy,Primary,Community,WM,Welsh medium,"Nursery, Infants & Juniors",---,Ffordd Llanrwst,,Dolgarrog,Conwy,LL32 8QE,01492660216,109,,,,,,,,,,,53.194607,-3.8434816
6623020,Ysgol Babanod Llanfairfechan,662,Conwy,Primary,Voluntary controlled,EW,English with significant Welsh,Nursery & Infants,Church in Wales,Ffordd Y Pentref,Llanfairfechan,Conwy,,LL33 0AA,01248680289,111,,,,,,,,,,,53.2527126,-3.9759636
6623021,Ysgol Llangelynnin,662,Conwy,Primary,Voluntary controlled,WM,Welsh medium,"Nursery, Infants & Juniors",Church in Wales,Henryd,Conwy,,,LL32 8YB,01492592898,79,,,,,,,,,,,53.25554899999999,-3.845116
6623024,Ysgol Pencae,662,Conwy,Primary,Voluntary aided,WM,Welsh medium,"Nursery, Infants & Juniors",Church in Wales,Ffordd Graiglwyd,Penmaenmawr,,,LL34 6YG,01492622219,150,,,,,,,,,,,53.269453,-3.9144142
6623032,Ysgol Ysbyty Ifan,662,Conwy,Primary,Voluntary controlled,WM,Welsh medium,"Nursery, Infants & Juniors",Church in Wales,Ysbyty Ifan,Betws Y Coed,Conwy,,LL24 0NY,01690770645,18,,,,,,,,,,,53.022409,-3.729895
6623038,Ysgol St. George,662,Conwy,Primary,Voluntary controlled,EM,English medium,"Nursery, Infants & Juniors",Church in Wales,Primrose Hill,St George,Abergele,Conwy,LL22 9BU,01745833213,68,,,,,,,,,,,53.2874021,-3.5750802
6623039,Ysgol Llanddoged,662,Conwy,Primary,Voluntary controlled,WM,Welsh medium,"Nursery, Infants & Juniors",Church in Wales,Llanddoged,Llanrwst,Conwy,,LL26 0BJ,01492640363,40,,,,,,,,,,,53.15721079999999,-3.7857709
6623040,Ysgol Eglwysbach,662,Conwy,Primary,Voluntary controlled,WM,Welsh medium,"Nursery, Infants & Juniors",Church in Wales,Eglwysbach,Bae Colwyn,Conwy,,LL28 5UD,01492650463,61,,,,,,,,,,,53.2155437,-3.793161699999999
6623043,Ysgol Porth Y Felin,662,Conwy,Primary,Voluntary controlled,EW,English with significant Welsh,"Nursery, Infants & Juniors",Church in Wales,Ffordd Llanrwst,Conwy,,,LL32 8FZ,01492572220,321,,,,,,,,,,,53.2782889,-3.8330215
6623059,Ysgol Llanddulas,662,Conwy,Primary,Voluntary controlled,EM,English medium,"Nursery, Infants & Juniors",Church in Wales,Minffordd Road,Llanddulas,Abergele,Conwy,LL22 8EW,01492516865,148,,,,,,,,,,,53.2886603,-3.6437685
6623062,Ysgol Betws yn Rhos,662,Conwy,Primary,Voluntary controlled,WM,Welsh medium,"Nursery, Infants & Juniors",Church in Wales,Betws Yn Rhos,Abergele,,,LL22 8AW,01492680603,68,,,,,,,,,,,53.2481491,-3.6410397
6623302,Ysgol Bodafon,662,Conwy,Primary,Voluntary aided,EW,English with significant Welsh,"Nursery, Infants & Juniors",Church in Wales,Ffordd Bodafon,Llandudno,Conwy,,LL30 3BA,01492547996,85,,,,,,,,,,,53.3154573,-3.8256418
6623303,Ysgol Bendigaid William Davies,662,Conwy,Primary,Voluntary aided,EM,English medium,"Nursery, Infants & Juniors",Roman Catholic,Bodnant Crescent,Llandudno,Conwy,,LL30 1LL,01492875930,132,,,,,,,,,,,53.3123208,-3.8214011
6623307,Ysgol  San Sior,662,Conwy,Primary,Voluntary aided,EW,English with significant Welsh,"Nursery, Infants & Juniors",Church in Wales,Church Walks,Llandudno,Conwy,,LL30 2HL,01492878149,240,,,,,,,,,,,53.32394300000001,-3.839957
6623333,Ysgol Sant Joseph,662,Conwy,Primary,Voluntary aided,EM,English medium,"Nursery, Infants & Juniors",Roman Catholic,Brackley Avenue,Colwyn Bay,,,LL29 7UU,01492532394,238,,,,,,,,,,,53.2970392,-3.734495599999999
6623340,Ysgol y Plas,662,Conwy,Primary,Voluntary aided,EM,English medium,"Nursery, Infants & Juniors",Church in Wales,Llanelian,Old Colwyn,Conwy,,LL29 8YY,01492680601,74,,,,,,,,,,,53.2650818,-3.6831222
6624022,Ysgol John Bright,662,Conwy,Secondary,Community,EM,English medium,Secondary (ages 11-19),---,Maesdu Road,Llandudno,,,LL30 1LF,01492864200,1118,,,,,,,,,,,53.3154654,-3.825643799999999
6624023,Ysgol Aberconwy,662,Conwy,Secondary,Community,EM,English medium,Secondary (ages 11-19),---,Morfa Drive,Conwy,,,LL32 8ED,01492593243,1065,,,,,,,,,,,53.28653,-3.837935
6624035,YSGOL DYFFRYN CONWY,662,Conwy,Secondary,Community,WM,Welsh medium,Secondary (ages 11-19),---,Nebo Road,Llanrwst,,,LL26 0SD,01492642800,647,,,,,,,,,,,53.1340976,-3.7841494
6624038,YSGOL Y CREUDDYN,662,Conwy,Secondary,Community,WM,Welsh medium,Secondary (ages 11-19),---,Ffordd Dderwen,Bae Penrhyn,Llandudno,,LL30 3LB,01492544344,673,,,,,,,,,,,53.3115239,-3.7787931
6625201,Ysgol Pen Y Bryn,662,Conwy,Primary,Foundation,EM,English medium,"Nursery, Infants & Juniors",---,Wentworth Avenue,Colwyn Bay,,,LL29 6DD,01492531260,448,,,,,,,,,,,53.28781919999999,-3.738703199999999
6625400,Ysgol Emrys ap Iwan,662,Conwy,Secondary,Foundation,EM,English medium,Secondary (ages 11-19),---,Faenol Avenue,Abergele,Conwy,,LL22 7HE,01745832287,962,,,,,,,,,,,53.2850256,-3.5775663
6625402,Eirias High School,662,Conwy,Secondary,Foundation,EM,English medium,Secondary (ages 11-19),---,Eirias Road,Colwyn Bay,,,LL29 7SP,01492532025,1225,,,,,,,,,,,53.2909854,-3.7172893
6625403,Ysgol Bryn Elian,662,Conwy,Secondary,Foundation,EM,English medium,Secondary (ages 11-19),---,Windsor Drive,Colwyn Bay,Conwy,,LL29 8HU,01492518215,1022,,,,,,,,,,,53.2856971,-3.7051074
6627007,Ysgol Y Gogarth,662,Conwy,Special,Not Applicable,0 ,Not available,Special (with post-16 provision),---,Nant y Gamar Road,Craig Y Don,Llandudno,,LL30 1YE,01492860077,270,,,,,,,,,,,53.3206911,-3.8032497
6632011,Ysgol Hiraddug,663,Denbighshire,Primary,Community,EM,English medium,"Nursery, Infants & Juniors",---,Thomas Avenue,Dyserth,Rhyl,Denbighshire,LL18 6AN,01745570467,215,,,,,,,,,,,53.2986474,-3.4129446
6632037,Ysgol Y Castell CP,663,Denbighshire,Primary,Community,EM,English medium,"Nursery, Infants & Juniors",---,Hylas Lane,Rhuddlan,Denbighshire,,LL18 5AG,01745590545,221,,,,,,,,,,,53.2890594,-3.4624048
6632038,Christ Church Primary School,663,Denbighshire,Primary,Community,EM,English medium,"Nursery, Infants & Juniors",---,Ernest Street,Rhyl,Denbighshire,,LL18 2DS,01745353982,434,,,,,,,,,,,53.3164159,-3.4861981
6632039,Ysgol Llywelyn,663,Denbighshire,Primary,Community,EM,English medium,"Nursery, Infants & Juniors",---,Trellewelyn Road,Rhyl,Denbighshire,,LL18 4EU,01745353392,700,,,,,,,,,,,53.3145805,-3.4690457
6632057,Ysgol y Faenol,663,Denbighshire,Primary,Community,EM,English medium,"Nursery, Infants & Juniors",---,John's Drive,Bodelwyddan,Nr. Rhyl,Denbighshire,LL18 5TG,01745583370,144,,,,,,,,,,,53.2695452,-3.5097776
6632059,Ysgol Penmorfa CP,663,Denbighshire,Primary,Community,EM,English medium,"Nursery, Infants & Juniors",---,Dawson Drive,Prestatyn,Denbighshire,,LL19 8SY,01745852757,395,,,,,,,,,,,53.33004649999999,-3.4088584
6632060,Ysgol Emmanuel,663,Denbighshire,Primary,Community,EM,English medium,"Nursery, Infants & Juniors",---,Victoria Road,Rhyl,Denbighshire,,LL18 2EG,01745353447,455,,,,,,,,,,,53.3161845,-3.4830268
6632066,Ysgol Dewi Sant,663,Denbighshire,Primary,Community,WM,Welsh medium,Infants & Juniors,---,Ffordd Rhuddlan,Rhyl,Denbighshire,,LL18 2RE,01745351355,410,,,,,,,,,,,53.30870359999999,-3.4714612
6632067,Ysgol Melyd,663,Denbighshire,Primary,Community,EM,English medium,"Nursery, Infants & Juniors",---,Ffordd Pennant,Meliden,Prestatyn,Denbighshire,LL19 8PE,01745852782,153,,,,,,,,,,,53.3162365,-3.4151387
6632070,Ysgol Bodfari,663,Denbighshire,Primary,Community,EM,English medium,"Nursery, Infants & Juniors",---,Bodfari,Denbighshire,,,LL16 4DA,01745710329,40,,,,,,,,,,,53.2193779,-3.3622335
6632072,Ysgol Bryn Hedydd,663,Denbighshire,Primary,Community,EM,English medium,"Nursery, Infants & Juniors",---,Spruce Avenue,Tynewydd Road,Rhyl,Denbighshire,LL18 3SU,01745351676,474,,,,,,,,,,,53.3256125,-3.467883
6632124,Ysgol Cefn Meiriadog,663,Denbighshire,Primary,Community,EM,English medium,"Nursery, Infants & Juniors",---,Groesffordd Marli,Marli,St Asaph,Denbighshire,LL22 9DS,01745582224,56,,,,,,,,,,,53.2485936,-3.4997994
6632125,Frongoch Juniors,663,Denbighshire,Primary,Community,EM,English medium,Juniors,---,Rhyl Road,Denbigh,Denbighshire,,LL16 3DP,01745812410,212,,,,,,,,,,,53.1894222,-3.4091807
6632127,Ysgol Gymraeg Henllan,663,Denbighshire,Primary,Community,WM,Welsh medium,"Nursery, Infants & Juniors",---,Ffordd Dinbych,Henllan,Dinbych,Sir Ddinbych,LL16 5AW,01745812959,70,,,,,,,,,,,53.20085839999999,-3.4584745
6632134,Ysgol Twm o'r Nant,663,Denbighshire,Primary,Community,WM,Welsh medium,"Nursery, Infants & Juniors",---,Ffordd Rhyl,Dinbych,,,LL16 3DP,01745812261,323,,,,,,,,,,,53.188399,-3.4088976
6632135,Ysgol Bryn Clwyd,663,Denbighshire,Primary,Community,TR,Transitional,"Nursery, Infants & Juniors",---,Llandyrnog,Sir Ddinbych,,,LL16 4HG,01824790324,48,,,,,,,,,,,53.1771968,-3.3367462
6632136,Ysgol Y Parc,663,Denbighshire,Primary,Community,EM,English medium,Nursery & Infants,---,Ruthin Road,Denbigh,,,LL16 3ER,01745812989,171,,,,,,,,,,,53.1865757,-3.4067083
6632164,Ysgol Gellifor,663,Denbighshire,Primary,Community,EM,English medium,"Nursery, Infants & Juniors",---,Gellifor,Ruthin,Denbighshire,,LL15 1SB,01824790387,39,,,,,,,,,,,53.1525228,-3.3148446
6632168,Ysgol Pentrecelyn,663,Denbighshire,Primary,Community,WM,Welsh medium,"Nursery, Infants & Juniors",---,Pentrecelyn,Ruthun,Sir Ddinbych,,LL15 2HG,01978790288,21,,,,,,,,,,,53.0669847,-3.2729481
6632214,Ysgol Betws Gwerful Goch,663,Denbighshire,Primary,Community,WM,Welsh medium,"Nursery, Infants & Juniors",---,Betws Gwerfil Goch,Corwen,Denbighshire,,LL21 9PY,01490460315,21,,,,,,,,,,,53.0096072,-3.4451315
6632215,Ysgol Carrog,663,Denbighshire,Primary,Community,TR,Transitional,"Nursery, Infants & Juniors",---,Carrog,Nr Corwen,Denbighshire,,LL21 9AN,01490430262,32,,,,,,,,,,,52.98255,-3.3249394
6632216,Ysgol Caer Drewyn,663,Denbighshire,Primary,Community,TR,Transitional,"Nursery, Infants & Juniors",---,Clawdd Poncen,Corwen,Denbighshire,,LL21 9RT,01490412418,92,,,,,,,,,,,52.9898756,-3.3798206
6632219,Ysgol Bro Elwern,663,Denbighshire,Primary,Community,WM,Welsh medium,"Nursery, Infants & Juniors",---,Gwyddelwern,Corwen,Sir Ddinbych,,LL21 9DF,01490412332,70,,,,,,,,,,,53.00833859999999,-3.3803296
6632227,Ysgol Y Llys,663,Denbighshire,Primary,Community,WM,Welsh medium,"Nursery, Infants & Juniors",---,Rhodfa'r Tywysog,Prestatyn,Denbighshire,,LL19 8RP,01745853019,350,,,,,,,,,,,53.3253753,-3.4123288
6632234,Ysgol Bryn Collen,663,Denbighshire,Primary,Community,EM,English medium,"Nursery, Infants & Juniors",---,Pengwern,Llangollen,Denbighshire,,LL20 8AR,01978861125,169,,,,,,,,,,,52.9626633,-3.1614725
6632255,Rhos Street CP School,663,Denbighshire,Primary,Community,EM,English medium,"Nursery, Infants & Juniors",---,Ffordd Glasdir,Ruthin,Denbighshire,,LL15 1QQ,01824702565,224,,,,,,,,,,,53.1145551,-3.3029987
6632256,Ysgol Pen Barras,663,Denbighshire,Primary,Community,WM,Welsh medium,"Nursery, Infants & Juniors",---,Ffordd Glasdir,North Link Road,Ruthun,Sir Ddinbych,LL15 1QQ,01824704129,297,,,,,,,,,,,53.1166419,-3.3219916
6632261,Ysgol Bro Cinmeirch,663,Denbighshire,Primary,Community,WM,Welsh medium,"Nursery, Infants & Juniors",---,Llanrhaedr Y.C.,Dinbych,Sir Ddinbych,,LL16 4NL,01745890347,98,,,,,,,,,,,53.1574357,-3.3717134
6632262,Ysgol Bro Famau,663,Denbighshire,Primary,Community,EM,English medium,"Nursery, Infants & Juniors",---,Eryrys Road,Llanaman - Yn - Lal,Nr Mold,,CH7 4TB,01824780722,59,,,,,,,,,,,53.1364038,-3.2163867
6632263,Ysgol Gymraeg y Gwernant,663,Denbighshire,Primary,Community,WM,Welsh medium,"Nursery, Infants & Juniors",---,Pengwern,Llangollen,Denbighshire,,LL20 8AR,01978861986,165,,,,,,,,,,,52.9625293,-3.1612899
6632264,Ysgol Clawdd Offa,663,Denbighshire,Primary,Community,EM,English medium,Infants & Juniors,---,By Plas Morfa Farm,Ffordd Penrhwylfa,Prestatyn,Denbighshire,LL19 8AZ,01745850124,351,,,,,,,,,,,53.3284652,-3.4246873
6632265,Bodnant Community Primary School,663,Denbighshire,Primary,Community,EM,English medium,"Nursery, Infants & Juniors",---,Nant Hall Road,Prestatyn,Denbighshire,,LL19 9NW,01745854724,468,,,,,,,,,,,53.3360481,-3.3984205
6632266,Ysgol Pendref,663,Denbighshire,Primary,Community,EM,English medium,"Nursery, Infants & Juniors",---,Gwaenynog Road,Denbigh,,,LL16 3RU,01745812660,122,,,,,,,,,,,53.18432869999999,-3.4314784
6632267,Ysgol_Bro_Dyfrdwy,663,Denbighshire,Primary,Community,WM,Welsh medium,"Nursery, Infants & Juniors",---,Cynwyd,Corwen,,,LL21 0LG,01490412500,119,,,,,,,,,,,52.9603547,-3.4065922
6632268,Ysgol Carreg Emlyn,663,Denbighshire,Primary,Community,WM,Welsh medium,"Nursery, Infants & Juniors",---,Safle Clocaenog,Clocaenog,Rhuthun,,LL15 2AY,01824750636,70,,,,,,,,,,,53.0772018,-3.369332
6633020,Ysgol Tremeirchion,663,Denbighshire,Primary,Voluntary controlled,WM,Welsh medium,"Nursery, Infants & Juniors",Church in Wales,Tremeirchion,Llanelwg,St Asaph,Sir Ddinbych,LL17 0UN,01745710328,75,,,,,,,,,,,53.2466163,-3.3765137
6633024,St Asaph Infants School,663,Denbighshire,Primary,Voluntary controlled,EM,English medium,Nursery & Infants,Church in Wales,Upper Denbigh Road,St Asaph,Denbighshire,,LL17 0RL,01745583416,75,,,,,,,,,,,53.2552818,-3.4391971
6633044,Ysgol Llanbedr,663,Denbighshire,Primary,Voluntary controlled,EM,English medium,"Nursery, Infants & Juniors",Church in Wales,Llanbedr,Ruthin,Denbighshire,,LL15 1SU,01824702927,65,,,,,,,,,,,53.13189209999999,-3.2882648
6633045,Ysgol Llanfair Dyffryn Clwyd,663,Denbighshire,Primary,Voluntary controlled,DS,Dual Stream,"Nursery, Infants & Juniors",Church in Wales,Llanfair Dyffryn Clwyd,Ruthin,Denbighshire,,LL15 2SD,01824703169,111,,,,,,,,,,,53.08826060000001,-3.2967779
6633050,Ysgol Borthyn,663,Denbighshire,Primary,Voluntary controlled,EM,English medium,"Nursery, Infants & Juniors",Church in Wales,Denbigh Road,Ruthin,Denbighshire,,LL15 1NT,01824702727,108,,,,,,,,,,,53.11368,-3.3180687
6633057,Ysgol Pant Pastynog,663,Denbighshire,Primary,Voluntary controlled,WM,Welsh medium,"Nursery, Infants & Juniors",Church in Wales,Prion,Denbighshire,,,LL16 4SG,01745890331,67,,,,,,,,,,,53.14475400000001,-3.4270249
6633061,Ysgol Dyffryn Ial,663,Denbighshire,Primary,Voluntary controlled,TR,Transitional,"Nursery, Infants & Juniors",Church in Wales,Allt Yr Efail,Llandegla,Wrecsam,Sir Ddinbych,LL11 3AW,01978790645,46,,,,,,,,,,,53.0622585,-3.2008909
6633062,Ysgol Esgob Morgan,663,Denbighshire,Primary,Community,EM,English medium,Juniors,Church in Wales,Ffordd Siarl,Ashley Court,St Asaph,Denbighshire,LL17 0PT,01745583690,117,,,,,,,,,,,53.2589669,-3.4532956
6633316,Ysgol Trefnant,663,Denbighshire,Primary,Voluntary aided,EM,English medium,"Nursery, Infants & Juniors",Church in Wales,Henllan Road,Trefnant,Nr. Denbigh,Denbighshire,LL16 5UF,01745730276,70,,,,,,,,,,,53.2238626,-3.4232224
6634003,Rhyl High School,663,Denbighshire,Secondary,Community,EM,English medium,Secondary (ages 11-16),---,Grange Road,Rhyl,Denbighshire,,LL18 4BY,01745343533,1161,,,,,,,,,,,53.3207615,-3.4747264
6634014,Prestatyn High School,663,Denbighshire,Secondary,Community,EM,English medium,Secondary (ages 11-19),---,2 Princes Avenue,Prestatyn,Denbighshire,,LL19 8RS,01745852312,1484,,,,,,,,,,,53.32589729999999,-3.4062176
6634020,Ysgol Uwchradd Glan Clwyd,663,Denbighshire,Secondary,Community,WM,Welsh medium,Secondary (ages 11-19),---,Ffordd Dinbych,Llanelwy,Sir Ddinbych,,LL17 0RP,01745582611,1016,,,,,,,,,,,53.1854768,-3.4079608
6634026,Denbigh High School,663,Denbighshire,Secondary,Community,EM,English medium,Secondary (ages 11-19),---,Ruthin Road,Denbigh,Denbighshire,,LL16 3EX,01745812485,499,,,,,,,,,,,53.1854768,-3.4079608
6634027,Ysgol Dinas Bran,663,Denbighshire,Secondary,Community,EW,English with significant Welsh,Secondary (ages 11-19),---,Dinbren Road,Llangollen,Denbighshire,,LL20 8TG,01978860669,1068,,,,,,,,,,,52.972908,-3.1707079
6634031,Ysgol Brynhyfryd,663,Denbighshire,Secondary,Community,BB,Bilingual (Type B),Secondary (ages 11-19),---,Mold Road,Ruthin,Denbighshire,,LL15 1EG,01824703933,1132,,,,,,,,,,,53.11496349999999,-3.2983753
6635901,St Brigid's School,663,Denbighshire,Middle,Voluntary aided,EM,English medium,Middle (ages 3-19),Roman Catholic,Plas Yn Green,Mold Road,Denbigh,,LL16 4BH,01745815228,474,,,,,,,,,,,53.1988141,-3.4049952
6635902,Christ the Word,663,Denbighshire,Middle,Voluntary aided,EM,English medium,Middle (ages 3-16),Roman Catholic,Cefndy Road,,,Rhyl,LL18 2EU,01745352999,884,,,,,,,,,,,53.3141401,-3.4775279
6637000,YSGOL TIR MORFA,663,Denbighshire,Special,Not Applicable,0 ,Not available,Special (with post-16 provision),---,Ffordd Derwen,Rhyl,Denbighshire,,LL18 2RN,01745350388,109,,,,,,,,,,,53.3094919,-3.4785708
6637010,Ysgol Plas Brondyffryn,663,Denbighshire,Special,Not Applicable,0 ,Not available,Special (with post-16 provision),---,Park Street,Denbigh,,,LL16 3DR,01745813914,125,,,,,,,,,,,53.185089,-3.4093053
6642002,Ysgol Glan Aber,664,Flintshire,Primary,Community,EM,English medium,"Nursery, Infants & Juniors",---,Boot End,Bagillt,Flintshire,,CH6 6LW,01352711995,151,,,,,,,,,,,53.2781974,-3.1893193
6642003,Ysgol Merllyn,664,Flintshire,Primary,Community,EM,English medium,"Nursery, Infants & Juniors",---,Foel Gron,Bagillt,Flintshire,,CH6 6BB,01352733366,133,,,,,,,,,,,53.2654991,-3.16838
6642004,Westwood CP,664,Flintshire,Primary,Community,EM,English medium,"Nursery, Infants & Juniors",---,Tabernacle Street,Buckley,Flintshire,,CH7 2JT,01244543207,208,,,,,,,,,,,53.1673701,-3.0813832
6642012,Ewloe Green,664,Flintshire,Primary,Community,EM,English medium,"Nursery, Infants & Juniors",---,Old Mold Road,Ewloe,Deeside,Flintshire,CH5 3GU,01244532569,379,,,,,,,,,,,53.1919982,-3.0559878
6642013,Bryn Garth CP,664,Flintshire,Primary,Community,EM,English medium,"Nursery, Infants & Juniors",---,Ffynnongroew,Holywell,Flintshire,,CH8 9JA,01745560435,84,,,,,,,,,,,53.3250511,-3.3048626
6642015,Ysgol Gwynedd CP,664,Flintshire,Primary,Community,EM,English medium,"Nursery, Infants & Juniors",---,Prince Of Wales Avenue,Flint,Flintshire,,CH6 5DL,01325732365,522,,,,,,,,,,,53.2450447,-3.1334627
6642018,Ysgol Maesglas,664,Flintshire,Primary,Community,EM,English medium,"Nursery, Infants & Juniors",---,Fulbrooke,Greenfield,Holywell,Flintshire,CH8 7JW,01352711497,234,,,,,,,,,,,53.29012609999999,-3.2129004
6642021,Ysgol Gymraeg Mornant,664,Flintshire,Primary,Community,WM,Welsh medium,"Nursery, Infants & Juniors",---,Picton Road,"Picton,  Penyffordd",Treffynnon,Sir Y Fflint,CH8 9JQ,01745560433,66,,,,,,,,,,,53.3290527,-3.3254662
6642024,Ysgol Estyn Community School,664,Flintshire,Primary,Community,EM,English medium,"Nursery, Infants & Juniors",---,Hawarden Road,Hope,Nr. Wrexham,Flintshire,LL12 9NL,01978760501,227,,,,,,,,,,,53.1144846,-3.0333626
6642028,Ysgol Glanrafon,664,Flintshire,Primary,Community,WM,Welsh medium,"Nursery, Infants & Juniors",---,Lon Bryn Coch,Yr Wyddgrug,Sir Y Fflint,,CH7 1PS,01352700384,323,,,,,,,,,,,53.1626284,-3.1452814
6642032,Northop Hall,664,Flintshire,Primary,Community,EM,English medium,"Nursery, Infants & Juniors",---,Llys Ben,Northop Hall,Nr.Mold,Flintshire,CH7 6HS,01244815980,169,,,,,,,,,,,53.2019947,-3.092611
6642040,Wood Memorial Primary School,664,Flintshire,Primary,Community,EM,English medium,"Nursery, Infants & Juniors",---,Boundary Lane,Saltney,Chester,Flintshire,CH4 8BT,01244671807,160,,,,,,,,,,,53.17868989999999,-2.9217637
6642041,Sealand CP School,664,Flintshire,Primary,Community,EM,English medium,"Nursery, Infants & Juniors",---,Farm Road,Sealand,Deeside,Flintshire,CH5 2HH,01244830089,206,,,,,,,,,,,53.21298789999999,-3.0123728
6642043,Sychdyn CP,664,Flintshire,Primary,Community,EM,English medium,"Nursery, Infants & Juniors",---,Vownog Road,Sychdyn,Mold,Flintshire,CH7 6ED,01352753654,167,,,,,,,,,,,53.1901618,-3.1325724
6642044,Trelogan Primary,664,Flintshire,Primary,Community,EM,English medium,"Nursery, Infants & Juniors",---,Berthengam,Treffynnon,Sir Y Fflint,,CH8 9BZ,01745560432,59,,,,,,,,,,,53.3103069,-3.3278914
6642046,Bryn Pennant CP,664,Flintshire,Primary,Community,EM,English medium,"Nursery, Infants & Juniors",---,Ffordd Pennant,Mostyn,Nr. Holywell,Flintshire,CH8 9NU,01745560274,117,,,,,,,,,,,53.3085781,-3.2623041
6642049,Ysgol Bro Carmel,664,Flintshire,Primary,Community,EM,English medium,"Nursery, Infants & Juniors",---,Carmel Road,Carmel,Holywell,Flintshire,CH8 8NU,01352712234,164,,,,,,,,,,,53.2809791,-3.2560036
6642050,Rhos Helyg School,664,Flintshire,Primary,Community,EM,English medium,"Nursery, Infants & Juniors",---,Rhosesmor,Mold,Flintshire,,CH7 6PJ,01352780265,104,,,,,,,,,,,53.216854,-3.18299
6642051,Ysgol Terrig,664,Flintshire,Primary,Community,WM,Welsh medium,"Nursery, Infants & Juniors",---,Ffordd y Llan,Treuddyn,Yr Wyddgrug,Sir Y Fflint,CH7 4LN,01352770235,94,,,,,,,,,,,53.1137586,-3.1179842
6642052,Ysgol Bryn Deva,664,Flintshire,Primary,Community,EM,English medium,"Nursery, Infants & Juniors",---,Linden Avenue,Connah's Quay,Flintshire,,CH5 4SN,01244830080,326,,,,,,,,,,,53.2176585,-3.065948
6642053,Sandycroft CP,664,Flintshire,Primary,Community,EM,English medium,"Nursery, Infants & Juniors",---,Leaches Lane,Mancot,Deeside,Flintshire,CH5 2EH,01244532083,360,,,,,,,,,,,53.1994215,-3.0121053
6642056,Gwernymynydd CP School,664,Flintshire,Primary,Community,EM,English medium,"Nursery, Infants & Juniors",---,Godre'r Coed,Gwernymynydd,Mold,Flintshire,CH7 4DT,01352756756,73,,,,,,,,,,,53.1564882,-3.1703895
6642061,Queensferry Community Primary School,664,Flintshire,Primary,Community,EM,English medium,"Nursery, Infants & Juniors",---,Queens Ferry Campus, Queen's Ferry,Deeside,Flintshire,CH5 1SA,01244812136,119,,,,,,,,,,,53.20657600000001,-3.0298172
6642062,Ysgol Bryn Coch,664,Flintshire,Primary,Community,EM,English medium,"Nursery, Infants & Juniors",---,Victoria Road,Mold,Flintshire,,CH7 1EW,01352752975,636,,,,,,,,,,,53.1656156,-3.1395014
6642063,Mountain Lane Primary School,664,Flintshire,Primary,Community,EM,English medium,"Nursery, Infants & Juniors",---,Knowle Lane,Buckley,Flintshire,,CH7 3JA,01244550688,459,,,,,,,,,,,53.17024989999999,-3.0730313
6642064,"Ysgol y Foel, Cilcain",664,Flintshire,Primary,Community,EM,English medium,"Nursery, Infants & Juniors",---,Ffordd Y Llan,Cilcain,Mold,Flintshire,CH7 5NH,01352740197,35,,,,,,,,,,,53.17921519999999,-3.2335639
6642065,Brynford CP,664,Flintshire,Primary,Community,EM,English medium,"Nursery, Infants & Juniors",---,Brynford,Holywell,Flintshire,,CH8 8AD,01352713184,80,,,,,,,,,,,53.2577629,-3.2342801
6642068,Ysgol Bryn Gwalia,664,Flintshire,Primary,Community,EM,English medium,"Nursery, Infants & Juniors",---,Clayton Road,Mold,Flintshire,,CH7 1SU,01352752659,137,,,,,,,,,,,53.1669636,-3.1504368
6642077,Golftyn CP School,664,Flintshire,Primary,Community,EM,English medium,"Nursery, Infants & Juniors",---,York Road,Connah's Quay,Deeside,Flintshire,CH5 4XA,01244830569,392,,,,,,,,,,,53.22067759999999,-3.0703964
6642078,Saltney Ferry CP,664,Flintshire,Primary,Community,EM,English medium,"Nursery, Infants & Juniors",---,Saltney Ferry Road,Saltney Ferry,Chester,Flintshire,CH4 0BN,01244680302,133,,,,,,,,,,,53.1770536,-2.9453943
6642081,Y Waun,664,Flintshire,Primary,Community,EM,English medium,"Nursery, Infants & Juniors",---,Y Waen,Gwernaffield,Mold,Flintshire,CH7 5DP,01352740362,61,,,,,,,,,,,53.1720083,-3.1913245
6642082,Ysgol Gwenffrwd,664,Flintshire,Primary,Community,WM,Welsh medium,"Nursery, Infants & Juniors",---,Stryd Chwitffordd,Treffynnon,Sir Y Fflint,,CH8 7NJ,01352713158,123,,,,,,,,,,,53.2758982,-3.2274671
6642084,Abermorddu CP School,664,Flintshire,Primary,Community,EM,English medium,"Nursery, Infants & Juniors",---,Cymau Road,Caergwrle,Nr. Wrexham,Flintshire,LL12 9DH,01978760647,181,,,,,,,,,,,53.1014762,-3.0332515
6642085,Southdown CP,664,Flintshire,Primary,Community,EM,English medium,"Nursery, Infants & Juniors",---,Linderick Avenue,Buckley,Flintshire,,CH7 2NP,01244544473,372,,,,,,,,,,,53.1702678,-3.0886465
6642086,Wepre Community School,664,Flintshire,Primary,Community,EM,English medium,"Nursery, Infants & Juniors",---,Llwyni Drive,Connah's Quay,Deeside,Flintshire,CH5 4NE,01244830104,329,,,,,,,,,,,53.2048256,-3.0701278
6642089,Drury Primary School,664,Flintshire,Primary,Community,EM,English medium,"Nursery, Infants & Juniors",---,Beech Road,Drury,Buckley,Flintshire,CH7 3EG,01244543005,148,,,,,,,,,,,53.1704934,-3.0532993
6642091,Cornist Park CP,664,Flintshire,Primary,Community,EM,English medium,"Nursery, Infants & Juniors",---,Ffordd yr Ysgol,Flint,,,CH6 5ET,01352735657,269,,,,,,,,,,,53.2453684,-3.151543
6642092,Ysgol Derwenfa CP,664,Flintshire,Primary,Community,EM,English medium,"Nursery, Infants & Juniors",---,Queen Street,Leeswood,Nr. Mold,Flintshire,CH7 4RQ,01352770477,87,,,,,,,,,,,53.1304159,-3.089173
6642093,Penarlag CP,664,Flintshire,Primary,Community,EM,English medium,"Nursery, Infants & Juniors",---,Carlines Avenue,Carlines Park,Ewloe,Flintshire,CH5 3RQ,01244533867,167,,,,,,,,,,,53.1922357,-3.0430762
6642094,Owen Jones CP,664,Flintshire,Primary,Community,EM,English medium,"Nursery, Infants & Juniors",---,Ffordd Owen,Northop,Mold,Flintshire,CH7 6AU,01352840255,119,,,,,,,,,,,53.20840639999999,-3.1369323
6642237,Gronant Primary School,664,Flintshire,Primary,Community,EM,English medium,"Nursery, Infants & Juniors",---,Nant Y Gro,Gronant,Nr. Prestatyn,Flintshire,LL19 9YP,01745856119,53,,,,,,,,,,,53.3381489,-3.3565037
6642257,Ysgol Gymraeg Croes Atti,664,Flintshire,Primary,Community,WM,Welsh medium,"Nursery, Infants & Juniors",---,Chester Road,Sir Y Fflint,,,CH6 5DU,01352733335,273,,,,,,,,,,,53.2456285,-3.1260395
6642266,Ysgol Parc y Llan,664,Flintshire,Primary,Community,EM,English medium,"Nursery, Infants & Juniors",---,Ffordd Y Llan,Treuddyn,Mold,Flintshire,CH7 4LN,01352770304,124,,,,,,,,,,,53.1136254,-3.1180607
6642267,Ysgol Mynydd Isa,664,Flintshire,Primary,Community,EM,English medium,"Nursery, Infants & Juniors",---,Chambers Lane,Bryn-Y-Baal,Mold,Flintshire,CH7 6SJ,01352752714,492,,,,,,,,,,,53.1732098,-3.1105045
6642268,Broughton Primary School,664,Flintshire,Primary,Community,EM,English medium,"Nursery, Infants & Juniors",---,Broughton Hall Road,Broughton,Flintshire,,CH4 0QQ,01244533752,582,,,,,,,,,,,53.1663285,-2.9858515
6642269,Ysgol Cae'r Nant,664,Flintshire,Primary,Community,EM,English medium,"Nursery, Infants & Juniors",---,Mold Road,Connah's Quay,Flintshire,,CH5 4QL,01244830708,343,,,,,,,,,,,53.2139819,-3.0541082
6642270,Ysgol Penyffordd,664,Flintshire,Primary,Community,EM,English medium,"Nursery, Infants & Juniors",---,Penymynydd Road,Penyffordd,Flintshire,,CH4 0LQ,01244547214,350,,,,,,,,,,,53.1519846,-3.0419729
6642271,Ysgol Ty Ffynnon,664,Flintshire,Primary,Community,EM,English medium,"Nursery, Infants & Juniors",---,Taliesin Avenue,Shotton,Flintshire,,CH5 1HP,01244830018,261,,,,,,,,,,,53.2086156,-3.0463887
6642272,Ysgol Maes Y Felin,664,Flintshire,Primary,Community,EM,English medium,"Nursery, Infants & Juniors",---,Pen Y Maes Road,Holywell,Flintshire,,CH8 7EN,01352711366,288,,,,,,,,,,,53.2759562,-3.21426
6643002,Nannerch V.C.P. School,664,Flintshire,Primary,Voluntary controlled,EM,English medium,"Nursery, Infants & Juniors",Church in Wales,Nannerch Village,Nr Mold,Flintshire,,CH7 5RD,01352741377,43,,,,,,,,,,,53.21930099999999,-3.252431
6643303,Ysgol Yr Esgob C in W,664,Flintshire,Primary,Voluntary aided,EM,English medium,"Nursery, Infants & Juniors",Church in Wales,Lon-yr-ysgol,Caerwys,Mold,Flintshire,CH7 5AD,01352720287,56,,,,,,,,,,,53.24498310000001,-3.310155
6643306,St Mary's,664,Flintshire,Primary,Voluntary aided,EM,English medium,"Nursery, Infants & Juniors",Roman Catholic,Ffordd Llewelyn,Pen Goch,Flintshire,,CH6 5JZ,01352733231,254,,,,,,,,,,,53.2407757,-3.1289677
6643307,St Winefrides,664,Flintshire,Primary,Community,EM,English medium,"Nursery, Infants & Juniors",Roman Catholic,Whitford Street,Holywell,Flintshire,,CH8 7NJ,01352713182,180,,,,,,,,,,,53.275408,-3.2265152
6643308,St David's Catholic Primary School,664,Flintshire,Primary,Voluntary aided,EM,English medium,"Nursery, Infants & Juniors",Roman Catholic,St David's Lane,Mold,Flintshire,,CH7 1LH,01352752651,78,,,,,,,,,,,53.170035,-3.135938
6643311,St Anthony's Catholic Primary,664,Flintshire,Primary,Voluntary aided,EM,English medium,"Nursery, Infants & Juniors",Roman Catholic,High Street,Saltney,Flintshire,,CH4 8SG,01244680480,70,,,,,,,,,,,53.1789536,-2.9240866
6643312,Venerable Edward Morgan RC,664,Flintshire,Primary,Voluntary aided,EM,English medium,"Nursery, Infants & Juniors",Roman Catholic,Caernarfon Close,Shotton,Flintshire,,CH5 1AS,01244830408,187,,,,,,,,,,,53.2068682,-3.0428904
6643316,Trelawnyd,664,Flintshire,Primary,Voluntary aided,EM,English medium,"Nursery, Infants & Juniors",Church in Wales,London Road,Rhyl,Trelawnyd,Flintshire,LL18 6DL,01745570171,67,,,,,,,,,,,53.3066735,-3.3683088
6643320,Ysgol y Llan VA Primary School Whitford,664,Flintshire,Primary,Voluntary aided,EM,English medium,"Nursery, Infants & Juniors",Church in Wales,Whitford,Holywell,Flintshire,,CH8 9AN,01745560431,81,,,,,,,,,,,53.294491,-3.2821771
6643330,St. Ethelwolds,664,Flintshire,Primary,Voluntary aided,EM,English medium,"Nursery, Infants & Juniors",Church in Wales,Melrose Avenue,Shotton,Deeside,Flintshire,CH5 1NG,01244812932,96,,,,,,,,,,,53.2020838,-3.0391715
6643331,St John the Baptist VA School,664,Flintshire,Primary,Voluntary aided,EM,English medium,"Nursery, Infants & Juniors",Church in Wales,Chester Road,Penymynydd,Flintshire,,CH4 0EN,01244550838,108,,,,,,,,,,,53.1581074,-3.0400284
6643332,Nercwys VA,664,Flintshire,Primary,Voluntary aided,EM,English medium,"Nursery, Infants & Juniors",Church in Wales,Village Road,Nercwys,Mold,Flintshire,CH7 4EL,01352752654,32,,,,,,,,,,,53.2138617,-3.2491072
6643333,Hawarden Village VA,664,Flintshire,Primary,Voluntary aided,EM,English medium,"Nursery, Infants & Juniors",Church in Wales,Cross Tree Lane,Hawarden,Flintshire,,CH5 3PY,01244532091,421,,,,,,,,,,,53.1854554,-3.0234398
6643334,Lixwm VA Church in Wales Primary School,664,Flintshire,Primary,Voluntary aided,EM,English medium,"Nursery, Infants & Juniors",Church in Wales,Lixwm Primary School,,Lixwm CP School,Lixwm Holywell,CH8 8NQ,01352780455,55,,,,,,,,,,,53.2331673,-3.2485405
6644000,Hawarden High School,664,Flintshire,Secondary,Community,EM,English medium,Secondary (ages 11-19),---,The Highway,Hawarden,Deeside,Flintshire,CH5 3DN,01244526400,1140,,,,,,,,,,,53.1883697,-3.041744
6644006,Alun School,664,Flintshire,Secondary,Community,EM,English medium,Secondary (ages 11-19),---,Wrexham Road,Mold,Flintshire,,CH7 1EP,01352750755,1538,,,,,,,,,,,53.1610958,-3.140336
6644011,Elfed High School,664,Flintshire,Secondary,Community,EM,English medium,Secondary (ages 11-16),---,Mill Lane,Buckley,Flintshire,,CH7 3HQ,01244550217,928,,,,,,,,,,,53.17185869999999,-3.0830812
6644012,Ysgol Treffynnon,664,Flintshire,Secondary,Community,EM,English medium,Secondary (ages 11-16),---,The Strand,Holywell,Flintshire,,CH8 7EN,01352710011,503,,,,,,,,,,,53.2764698,-3.2152429
6644013,St. David's High School,664,Flintshire,Secondary,Community,EM,English medium,Secondary (ages 11-16),---,St David's Terrace,Saltney,Chester,Flintshire,CH4 0AE,01244671583,343,,,,,,,,,,,53.1773376,-2.9386872
6644017,Castell Alun High School,664,Flintshire,Secondary,Community,EM,English medium,Secondary (ages 11-19),---,Fagl Lane,Hope,Flintshire,,LL12 9PY,01978760238,1284,,,,,,,,,,,53.1190649,-3.0358033
6644018,Maes Garmon,664,Flintshire,Secondary,Community,WM,Welsh medium,Secondary (ages 11-19),---,Stryd Conwy,Yr Wyddgrug,Sir Y Fflint,,CH7 1JB,01352750678,601,,,,,,,,,,,53.162366,-3.1409275
6644021,Flint High School,664,Flintshire,Secondary,Community,EM,English medium,Secondary (ages 11-19),---,Maes Hyfryd,Flintshire,,,CH6 5LL,01352732268,778,,,,,,,,,,,53.2390908,-3.1375217
6644022,"Connah's Quay High School,",664,Flintshire,Secondary,Community,EM,English medium,Secondary (ages 11-16),---,Golftyn Lane,Connah's Quay,Flintshire,,CH5 4BH,01244813491,1072,,,,,,,,,,,53.2230488,-3.0782318
6644042,Argoed School,664,Flintshire,Secondary,Community,EM,English medium,Secondary (ages 11-16),---,Bryn Road,Bryn Y Baal,Nr Mold,Flintshire,CH7 6RY,01352756414,551,,,,,,,,,,,53.1744152,-3.1067114
6644600,St. Richard Gwyn Catholic High School,664,Flintshire,Secondary,Voluntary aided,EM,English medium,Secondary (ages 11-19),Roman Catholic,Albert Avenue,Flint,,,CH6 5JZ,01352736900,772,,,,,,,,,,,53.2403793,-3.1268215
6645200,Derwen Foundation School,664,Flintshire,Primary,Foundation,EM,English medium,"Nursery, Infants & Juniors",---,Higher Kinnerton,Flintshire,,,CH4 9AJ,01244660291,192,,,,,,,,,,,53.1456919,-3.002257
6647020,Pen Coch,664,Flintshire,Special,Not Applicable,0 ,Not available,Special (without post-16 provision),---,Prince of Wales Avenue,Flint,Flintshire,,CH6 5DL,01352792730,99,,,,,,,,,,,53.2446382,-3.132981
6647021,Ysgol Maes Hyfryd,664,Flintshire,Special,Not Applicable,0 ,Not available,Special (with post-16 provision),---,Fifth Avenue,Flint,Flintshire,,CH6 5QL,01352792720,123,,,,,,,,,,,53.2396294,-3.1355018
6651007,Ysgol Cae'r Gwenyn,665,Wrexham,Nursery,Not Applicable,0 ,Not available,Nursery,---,Prince Charles Road,Wrexham,,,LL13 8TH,01978356177,50,,,,,,,,,,,53.0444068,-2.9722908
6652076,The Rofft CP School,665,Wrexham,Primary,Community,EM,English medium,"Nursery, Infants & Juniors",---,Wynnstay Lane,Marford,Wrexham,,LL12 8LA,01978853116,225,,,,,,,,,,,53.0895703,-2.9597399
6652137,Froncysyllte,665,Wrexham,Primary,Community,EM,English medium,"Nursery, Infants & Juniors",---,Woodlands Road,Froncysyllte,Llangollen,Wrexham,LL20 7SU,01691773310,19,,,,,,,,,,,52.9629899,-3.0883823
6652138,Garth CP,665,Wrexham,Primary,Community,EM,English medium,"Nursery, Infants & Juniors",---,Trevor,Llangollen,Wrexham,,LL20 7UY,01978820582,50,,,,,,,,,,,52.9769929,-3.1051945
6652139,Ysgol Cynddelw,665,Wrexham,Primary,Community,DS,Dual Stream,"Nursery, Infants & Juniors",---,New Road,Glynceiriog,Llangollen,,LL20 7HH,01691718426,89,,,,,,,,,,,52.9337477,-3.1810247
6652140,Llanarmon DC School,665,Wrexham,Primary,Community,WM,Welsh medium,"Nursery, Infants & Juniors",---,Llanarmon Dyffryn,Ceiriog,Nr Llangollen,,LL20 7LF,01691600278,20,,,,,,,,,,,52.8842797,-3.2560551
6652149,Ysgol Acrefair,665,Wrexham,Primary,Community,EM,English medium,"Nursery, Infants & Juniors",---,Tower View,Acrefair,Wrexham,,LL14 3SH,01978820616,215,,,,,,,,,,,52.9801608,-3.0793066
6652151,Cefn Mawr C P School,665,Wrexham,Primary,Community,EM,English medium,"Nursery, Infants & Juniors",---,Plas Kynaston Lane,Cefn Mawr,Wrexham,,LL14 3PY,01978820719,195,,,,,,,,,,,52.9702478,-3.0733908
6652160,Ysgol Maes-y-Llan,665,Wrexham,Primary,Community,EM,English medium,"Nursery, Infants & Juniors",---,Maes y Llan Lane,Ruabon,Wrexham,,LL14 6AE,01978820991,144,,,,,,,,,,,52.9882485,-3.0364644
6652162,Ysgol Min y Ddol,665,Wrexham,Primary,Community,WM,Welsh medium,"Nursery, Infants & Juniors",---,Lon Plas Kynmaston,Cefn Mawr,Wrexham,,LL14 3PY,01978820903,113,,,,,,,,,,,52.9709327,-3.0730076
6652173,Alexandra C P School,665,Wrexham,Primary,Community,EM,English medium,"Nursery, Infants & Juniors",---,Park Avenue,Bodhyfryd,Wrexham,,LL12 7AZ,01978315120,366,,,,,,,,,,,53.0503357,-2.9874498
6652176,Brynteg C P School,665,Wrexham,Primary,Community,EM,English medium,"Nursery, Infants & Juniors",---,Maesteg,Brynteg,Wrexham,,LL11 6NB,01978756398,177,,,,,,,,,,,53.0646599,-3.0372828
6652178,BWLCHGWYN SCHOOL,665,Wrexham,Primary,Community,EM,English medium,"Nursery, Infants & Juniors",---,Brymbo Road,Bwlchgwyn,Wrexham,,LL11 5UA,01978269930,111,,,,,,,,,,,53.0723818,-3.0936929
6652179,Ysgol Tan-y-Fron,665,Wrexham,Primary,Community,EM,English medium,"Nursery, Infants & Juniors",---,Tanyfron Road,Tanyfron,Wrexham,,LL11 5SA,01978758118,127,,,,,,,,,,,53.0619605,-3.0494741
6652187,Black Lane C P School,665,Wrexham,Primary,Community,EM,English medium,"Nursery, Infants & Juniors",---,Long Lane,Pentre Broughton,Wrexham,,LL11 6BT,01978757959,153,,,,,,,,,,,53.0735565,-3.043636
6652191,Rhosddu County Primary,665,Wrexham,Primary,Community,EM,English medium,"Nursery, Infants & Juniors",---,Price's Lane,Rhosddu,Wrexham,,LL11 2NB,01978318830,289,,,,,,,,,,,53.0551521,-2.9962898
6652200,Rhostyllen CP School,665,Wrexham,Primary,Community,EM,English medium,"Nursery, Infants & Juniors",---,School Street,Rhostyllen,Wrexham,,LL14 4AN,01978352357,219,,,,,,,,,,,53.0307712,-3.0248585
6652204,Ysgol Deiniol C P,665,Wrexham,Primary,Community,EM,English medium,"Nursery, Infants & Juniors",---,The Ridgeway,Marchwiel,Wrexham,,LL13 0SB,01978353760,171,,,,,,,,,,,53.0233806,-2.9568584
6652208,Barker's Lane CP,665,Wrexham,Primary,Community,EM,English medium,"Nursery, Infants & Juniors",---,Barker's Lane,Wrexham,,,LL13 9UN,01978357754,242,,,,,,,,,,,53.0669444,-2.9740717
6652209,Wat's Dyke County Primary,665,Wrexham,Primary,Community,EM,English medium,"Nursery, Infants & Juniors",---,Garden Village,Wrexham,,,LL11 2TE,01978355731,296,,,,,,,,,,,53.062585,-2.9968342
6652224,Ysgol Bryn Tabor,665,Wrexham,Primary,Community,WM,Welsh medium,"Nursery, Infants & Juniors",---,Heol Maelor,Coedpoeth,Wrecsam,,LL11 3NB,01978722180,221,,,,,,,,,,,53.0519116,-3.0676627
6652232,Ysgol Sant Dunawd,665,Wrexham,Primary,Community,EM,English medium,"Nursery, Infants & Juniors",---,Sandown Road,Bangor-On-Dee,Wrexham,,LL13 0JA,01978780757,89,,,,,,,,,,,53.0034717,-2.9065668
6652235,Holt C.P. School,665,Wrexham,Primary,Community,EM,English medium,"Nursery, Infants & Juniors",---,Chapel Street,Holt,Wrexham,,LL13 9DJ,01829270021,60,,,,,,,,,,,53.07833669999999,-2.8836117
6652238,Ysgol Bodhyfryd,665,Wrexham,Primary,Community,WM,Welsh medium,"Nursery, Infants & Juniors",---,Range Road,Wrexham,,,LL13 7DA,01978351168,315,,,,,,,,,,,53.035336,-2.985478
6652259,Ysgol I.D. Hooson,665,Wrexham,Primary,Community,WM,Welsh medium,"Nursery, Infants & Juniors",---,Heol Caradoc,Pentredwr,Rhos,Wrexham,LL14 2DX,01978832950,249,,,,,,,,,,,53.0075423,-3.0631983
6652263,Ysgol Plas Coch,665,Wrexham,Primary,Community,WM,Welsh medium,"Nursery, Infants & Juniors",---,Ffordd Stansty,Plas Coch,Wrexham,,LL11 2BU,01978311198,306,,,,,,,,,,,53.05830899999999,-3.004817
6652266,Penygelli C P School,665,Wrexham,Primary,Community,EM,English medium,"Nursery, Infants & Juniors",---,Heol Glyndwr,Coedpoeth,Wrexham,,LL11 3HA,01978722160,261,,,,,,,,,,,53.0528586,-3.0637697
6652267,Ysgol Penrhyn New Broughton CP,665,Wrexham,Primary,Community,EM,English medium,"Nursery, Infants & Juniors",---,School Lane,New Broughton,Wrexham,,LL11 6SF,01978269920,211,,,,,,,,,,,53.0581532,-3.0320304
6652268,Ysgol Heulfan,665,Wrexham,Primary,Community,EM,English medium,"Nursery, Infants & Juniors",---,Sunny View,Gwersylit,Wrexham,,LL11 4HS,01978722040,342,,,,,,,,,,,53.0730361,-3.0232814
6652269,Hafod y Wern Community Primary School,665,Wrexham,Primary,Community,EM,English medium,"Nursery, Infants & Juniors",---,Deva Way,Caia Park,Wrexham,,LL13 9HD,01978367080,270,,,,,,,,,,,53.04710249999999,-2.9722346
6652270,Gwenfro Community Primary,665,Wrexham,Primary,Community,EM,English medium,"Nursery, Infants & Juniors",---,Queensway,Wrexham,,,LL13 8UW,01978340380,321,,,,,,,,,,,53.0400037,-2.9709309
6652271,Park Community Primary School Llay,665,Wrexham,Primary,Community,EM,English medium,"Nursery, Infants & Juniors",---,School Road,Llay,Wrexham,,LL12 0TR,01978859100,350,,,,,,,,,,,53.0962219,-2.9972646
6652272,Rhosymedre Community Primary,665,Wrexham,Primary,Community,EM,English medium,"Nursery, Infants & Juniors",---,Parc Road,Rhosymedre,Wrexham,,LL14 3EG,01978812510,230,,,,,,,,,,,52.9796789,-3.0623185
6652273,Ysgol Maes y Mynydd,665,Wrexham,Primary,Community,EM,English medium,"Nursery, Infants & Juniors",---,Pentredwr,Rhosllanerchrugog,Wrexham,,LL14 1DD,01978832970,285,,,,,,,,,,,53.0154806,-3.0597048
6652274,Gwersyllt Community Primary School,665,Wrexham,Primary,Community,EM,English medium,"Nursery, Infants & Juniors",---,Dodds Lane,Gwersyllt,Wrexham,,LL11 4NT,01978269520,248,,,,,,,,,,,53.0716367,-3.0141654
6652275,Penycae Community Primary School,665,Wrexham,Primary,Community,EM,English medium,"Nursery, Infants & Juniors",---,Afoneitha Road,Penycae,Wrexham,,LL14 2PF,01978840509,187,,,,,,,,,,,52.9991987,-3.0625122
6652276,Acton Primary,665,Wrexham,Primary,Community,EM,English medium,"Nursery, Infants & Juniors",---,Box Lane,Wrexham,,,LL12 8BT,01978318950,334,,,,,,,,,,,53.0617474,-2.9851129
6652277,Victoria Community Primary,665,Wrexham,Primary,Community,EM,English medium,"Nursery, Infants & Juniors",---,Poyster Street,Wrexham,,,LL13 7RP,01978360060,451,,,,,,,,,,,53.04203260000001,-3.0016513
6652278,Ysgol Y Waun,665,Wrexham,Primary,Community,EM,English medium,"Nursery, Infants & Juniors",---,Lloyds Lane,Chirk,Wrexham,,LL14 5NH,01691770530,325,,,,,,,,,,,52.93773179999999,-3.0528152
6652279,Ysgol Bro Alun,665,Wrexham,Primary,Community,WM,Welsh medium,"Nursery, Infants & Juniors",---,Delamere Avenue,Gwersyllt,Wrexham,,LL11 4NG,01978269580,280,,,,,,,,,,,53.0785243,-3.0158803
6652280,"Ysgol Yr Hafod, Johnstown",665,Wrexham,Primary,Community,EM,English medium,"Nursery, Infants & Juniors",---, BANGOR ROAD,JOHNSTOWN,Wrexham,,LL14 2SW,01978840643,337,,,,,,,,,,,53.007188,-3.042626
6652281,Borras Park Community Primary,665,Wrexham,Primary,Community,EM,English medium,"Nursery, Infants & Juniors",---, BORRAS PARK ROAD,Borras Park,Wrexham,,LL12 7TH,01978346890,440,,,,,,,,,,,53.0611887,-2.9687521
6652282,Ysgol Llan y pwll,665,Wrexham,Primary,Community,WM,Welsh medium,"Nursery, Infants & Juniors",Not available,Ysgol Llan-y-pwll,Borras Park Road,,Wrexham,LL12 7TH,01978594101,22,,,,,,,,,,,53.0605447,-2.9706296
6653028,St Peter's School,665,Wrexham,Primary,Voluntary controlled,EM,English medium,"Nursery, Infants & Juniors",Church in Wales,Chapel Lane,Rossett,Wrexham,,LL12 0EE,01244570594,201,,,,,,,,,,,53.1107768,-2.9401856
6653036,Pentre CIW Voluntary Controlled,665,Wrexham,Primary,Voluntary controlled,EM,English medium,"Nursery, Infants & Juniors",Church in Wales,Pentre,Chirk,Wrexham,,LL14 5AW,01691773322,47,,,,,,,,,,,52.9594439,-3.0600398
6653042,Eyton Primary School,665,Wrexham,Primary,Voluntary controlled,EM,English medium,"Nursery, Infants & Juniors",Church in Wales,Bangor Road,Eyton,Wrexham,,LL13 0YD,01978823392,52,,,,,,,,,,,52.99874639999999,-2.9882923
6653054,BORDERBROOK SCHOOL,665,Wrexham,Primary,Voluntary controlled,EM,English medium,"Nursery, Infants & Juniors",Church in Wales,Talwrn Green,Malpas,Willington,Wrexham,SY14 7LJ,01948770676,16,,,,,,,,,,,52.991287,-2.8254222
6653055,St Giles Controlled Primary School,665,Wrexham,Primary,Voluntary controlled,EM,English medium,"Nursery, Infants & Juniors",Church in Wales,Madeira Hill ,Wrexham,,,LL13 7DG,01978318880,380,,,,,,,,,,,53.0423042,-2.9934411
6653301,BRONINGTON CHURCH IN WALES V.A,665,Wrexham,Primary,Voluntary aided,EM,English medium,"Nursery, Infants & Juniors",Church in Wales,School Lane,Bronington,Whitchurch,Wrexham,SY13 3HN,01948780283,46,,,,,,,,,,,52.9479025,-2.7587431
6653305,Madras VA School,665,Wrexham,Primary,Voluntary aided,EM,English medium,"Nursery, Infants & Juniors",Church in Wales,Penley,Wrexham,,,LL13 0LU,01978710419,124,,,,,,,,,,,52.9552365,-2.8800434
6653326,St Chad's Church in Wales Aided School,665,Wrexham,Primary,Voluntary aided,EM,English medium,"Nursery, Infants & Juniors",Church in Wales,Hanmer,Whitchurch,Wrexham,,SY13 3DG,01948830238,101,,,,,,,,,,,52.95239360000001,-2.8140078
6653334,St Mary's RC Primary,665,Wrexham,Primary,Voluntary aided,EM,English medium,"Nursery, Infants & Juniors",Roman Catholic,Lea Road,Wrexham,,,LL13 7NA,01978352406,359,,,,,,,,,,,53.0437965,-2.9964405
6653337,Minera,665,Wrexham,Primary,Voluntary aided,EM,English medium,"Nursery, Infants & Juniors",Church in Wales,Minera Hall Road,Minera,Wrexham,,LL11 3YE,01978269500,102,,,,,,,,,,,53.0588884,-3.0865103
6653338,All Saints Voluntary Aided Sch,665,Wrexham,Primary,Voluntary aided,EM,English medium,"Nursery, Infants & Juniors",Church in Wales,School Hill,Gresford,Wrexham,,LL12 8RW,01978852342,343,,,,,,,,,,,53.0872502,-2.9772869
6653341,St Mary's Church in Wales,665,Wrexham,Primary,Voluntary aided,EM,English medium,"Nursery, Infants & Juniors",Church in Wales,Park Street,Ruabon,Wrexham,,LL14 6LE,01978820979,204,,,,,,,,,,,52.9864264,-3.0387546
6653342,Brymbo Aided (St. Mary's),665,Wrexham,Primary,Community,EM,English medium,"Nursery, Infants & Juniors",Church in Wales,Ael y Bryn,Brymbo,Wrexham,,LL11 5DA,01978722970,131,,,,,,,,,,,53.0790327,-3.0544889
6653343,St Anne's Catholic Primary,665,Wrexham,Primary,Voluntary aided,EM,English medium,"Nursery, Infants & Juniors",Roman Catholic,Prince Charles Road,Wrexham,,,LL13 8TH,01978261623,179,,,,,,,,,,,53.0441783,-2.9714123
6653346,St Mary's Overton,665,Wrexham,Primary,Voluntary aided,EM,English medium,"Nursery, Infants & Juniors",Church in Wales,School Lane,Overton On Dee,Wrexham,,LL13 0ES,01978710370,154,,,,,,,,,,,52.9715086,-2.9332213
6653347,St Paul's Voluntary Aided,665,Wrexham,Primary,Voluntary aided,EM,English medium,"Nursery, Infants & Juniors",Church in Wales,Bowling Bank,Isycoed,Wrexham,,LL13 9RL,01978661556,35,,,,,,,,,,,53.04476260000001,-2.929622
6654029,Grango,665,Wrexham,Secondary,Community,EM,English medium,Secondary (ages 11-16),---,Vinegar Hill,Rhos,Wrexham,,LL14 1EL,01978833010,575,,,,,,,,,,,53.0153501,-3.0559242
6654032,YSGOL MORGAN LLWYD,665,Wrexham,Secondary,Community,WM,Welsh medium,Secondary (ages 11-19),---,Ffordd Cefn,Wrecsam,,,LL13 9NG,01978315050,889,,,,,,,,,,,53.0500759,-2.970523
6654033,Ysgol Bryn Alyn,665,Wrexham,Secondary,Community,EM,English medium,Secondary (ages 11-16),---,Church Street,Gwersyllt,Wrexham,,LL11 4HB,01978720700,677,,,,,,,,,,,53.0750014,-3.0235754
6654034,Darland High School,665,Wrexham,Secondary,Community,EM,English medium,Secondary (ages 11-16),---,Chester Road,Rossett,Wrexham,,LL12 0DL,01244570588,735,,,,,,,,,,,53.112925,-2.9380799
6654044,Ysgol Rhiwabon,665,Wrexham,Secondary,Community,EM,English medium,Secondary (ages 11-19),---,Ruabon,Wrexham,,,LL14 6BT,01978822392,519,,,,,,,,,,,52.9886448,-3.0481012
6654048,Rhosnesni High School,665,Wrexham,Secondary,Community,EM,English medium,Secondary (ages 11-16),---,Rhosnesni Lane,Wrexham,,,LL13 9ET,01978340840,1082,,,,,,,,,,,53.05544399999999,-2.9739589
6654049,Ysgol Clywedog,665,Wrexham,Secondary,Community,EM,English medium,Secondary (ages 11-16),---,Ruthin Road,Wrexham,,,LL13 7UB,01978346800,843,,,,,,,,,,,53.04302680000001,-3.0126874
6654603,St Joseph's Catholic and Anglican High,665,Wrexham,Secondary,Voluntary aided,EM,English medium,Secondary (ages 11-16),Roman Catholic & Anglican,Sontley Road,Wrexham,,,LL13 7EN,01978360310,734,,,,,,,,,,,53.0378528,-2.9965742
6655401,THE MAELOR SCHOOL,665,Wrexham,Secondary,Foundation,EM,English medium,Secondary (ages 11-19),---,Penley,Wrexham,,,LL13 0LU,01948830291,800,,,,,,,,,,,52.9533333,-2.8700693
6657005,St Christophers School,665,Wrexham,Special,Not Applicable,0 ,Not available,Special (with post-16 provision),---,Stockwell Grove,Wrexham,,,LL13 7BW,01978346910,278,,,,,,,,,,,53.0369233,-2.989516
6662002,ABERMULE PRIMARY SCHOOL,666,Powys,Primary,Community,EM,English medium,"Nursery, Infants & Juniors",---,Abermule,Montgomery,Powys,,SY15 6ND,01686630240,83,,,,,,,,,,,52.5440181,-3.2374247
6662003,ARDDLEEN C.P. SCHOOL,666,Powys,Primary,Community,EM,English medium,"Nursery, Infants & Juniors",---,Arddleen,Llanymynech,Powys,,SY22 6RT,01938590445,115,,,,,,,,,,,52.7339164,-3.1009448
6662005,BERRIEW C.P. SCHOOL,666,Powys,Primary,Community,EM,English medium,"Nursery, Infants & Juniors",---,Berriew,Welshpool,Powys,,SY21 8BA,01686640312,99,,,,,,,,,,,52.60226189999999,-3.2056359
6662008,CAERSWS C.P. SCHOOL,666,Powys,Primary,Community,EM,English medium,"Nursery, Infants & Juniors",---,Maesawelon,Caersws,Powys,,SY17 5HG,01686688458,74,,,,,,,,,,,52.5201126,-3.4249188
6662009,CARNO C.P. SCHOOL,666,Powys,Primary,Community,WM,Welsh medium,"Nursery, Infants & Juniors",---,Carno,Y Drenewydd,Powys,,SY17 5LH,01686420209,43,,,,,,,,,,,52.5567529,-3.5342025
6662010,CARREGHOFA C.P. SCHOOL,666,Powys,Primary,Community,EM,English medium,"Nursery, Infants & Juniors",---,Llanymynech,Powys,,,SY22 6PA,01691830396,102,,,,,,,,,,,52.77858759999999,-3.0979542
6662018,LEIGHTON C.P. SCHOOL,666,Powys,Primary,Community,EM,English medium,"Nursery, Infants & Juniors",---,Leighton,Welshpool,Powys,,SY21 8HH,01938553261,75,,,,,,,,,,,52.648653,-3.1214523
6662019,YSGOL LLANBRYNMAIR,666,Powys,Primary,Community,WM,Welsh medium,"Nursery, Infants & Juniors",---,Llanbrynmair,Powys,,,SY19 7DJ,01650521339,44,,,,,,,,,,,52.6105804,-3.6285107
6662020,LLANDINAM C.P. SCHOOL,666,Powys,Primary,Community,EM,English medium,"Nursery, Infants & Juniors",---,Llandinam,Powys,,,SY17 5BY,01686688457,31,,,,,,,,,,,52.4858653,-3.434737
6662033,MEIFOD C.P. SCHOOL,666,Powys,Primary,Community,EM,English medium,"Nursery, Infants & Juniors",---,Meifod,Powys,,,SY22 6DF,01938500300,61,,,,,,,,,,,52.71148489999999,-3.2549191
6662040,PENYGLODDFA C.P. SCHOOL,666,Powys,Primary,Community,EM,English medium,"Nursery, Infants & Juniors",---,School Lane,,,Newtown,SY16 2DF,01686626715,272,,,,,,,,,,,52.51930290000001,-3.3166649
6662041,PONTROBERT C.P. SCHOOL,666,Powys,Primary,Community,WM,Welsh medium,"Nursery, Infants & Juniors",---,Meifod,Powys,,,SY22 6JN,01938500394,66,,,,,,,,,,,52.69820860000001,-3.3249342
6662044,YSGOL DYFFRYN TRANNON,666,Powys,Primary,Community,DS,Dual Stream,"Nursery, Infants & Juniors",---,Trefeglwys,Newtown,Powys,,SY17 5PH,01686430644,100,,,,,,,,,,,52.5057882,-3.515407
6662049,GUILSFIELD C.P. SCHOOL,666,Powys,Primary,Community,EM,English medium,"Nursery, Infants & Juniors",---,Guilsfield,Nr Welshpool,Powys,,SY21 9ND,01938553979,153,,,,,,,,,,,52.6949371,-3.1565738
6662050,LLANIDLOES C.P. SCHOOL,666,Powys,Primary,Community,EM,English medium,"Nursery, Infants & Juniors",---,Llangurig Road,Llanidloes,Powys,,SY18 6EX,01686412603,261,,,,,,,,,,,52.4434682,-3.5437081
6662051,BUTTINGTON TREWERN C.P. SCHOOL,666,Powys,Primary,Community,EM,English medium,"Nursery, Infants & Juniors",---,Buttington,Welshpool,Powys,,SY21 8TB,01938570283,140,,,,,,,,,,,52.6879947,-3.0755985
6662053,BRYNHAFREN C.P. SCHOOL,666,Powys,Primary,Community,EM,English medium,Infants & Juniors,---,Bryn Hafren,,,Shrewsbury,SY5 9BJ,01743884455,32,,,,,,,,,,,52.7312114,-3.0056982
6662054,CHURCHSTOKE C.P. SCHOOL,666,Powys,Primary,Community,EM,English medium,"Nursery, Infants & Juniors",---,Churchstoke,Montgomery,Powys,,SY15 6AA,01588620330,39,,,,,,,,,,,52.5382723,-3.0742773
6662058,YSGOL GYNRADD GLANTWYMYN,666,Powys,Primary,Community,WM,Welsh medium,"Nursery, Infants & Juniors",---,Cemmaes Road,Machynlleth,Powys,,SY20 8LX,01650511394,75,,,,,,,,,,,52.6250343,-3.7402958
6662059,YSGOL PENNANT,666,Powys,Primary,Community,WM,Welsh medium,"Nursery, Infants & Juniors",---,Penybont Fawr,Oswestry,Salop,,SY10 0PD,01691860326,78,,,,,,,,,,,52.8120425,-3.3538909
6662060,MAESYRHANDIR C.P. SCHOOL,666,Powys,Primary,Community,EM,English medium,"Nursery, Infants & Juniors",---,Newtown,Powys,,,SY16 1LH,01686626337,99,,,,,,,,,,,52.5043392,-3.3275431
6662062,TREOWEN C.P. SCHOOL,666,Powys,Primary,Community,EM,English medium,"Nursery, Infants & Juniors",---,Newtown,Powys,,,SY16 1NH,01686627569,106,,,,,,,,,,,52.5113689,-3.3094219
6662066,FRANKSBRIDGE C.P. SCHOOL,666,Powys,Primary,Community,EM,English medium,"Nursery, Infants & Juniors",---,Franksbridge,Llandrindod Wells,Powys,,LD1 5SA,01982570275,39,,,,,,,,,,,52.1971696,-3.2903404
6662068,LLANBISTER C.P. SCHOOL,666,Powys,Primary,Community,EM,English medium,"Nursery, Infants & Juniors",---,Llanbister,Llandrindod Wells,Powys,,LD1 6TN,01597840258,57,,,,,,,,,,,52.35130969999999,-3.3105499
6662070,YSGOL CEFNLLYS,666,Powys,Primary,Community,EM,English medium,"Nursery, Infants & Juniors",---,Cefnllys Lane,Llandrindod Wells,Powys,,LD1 5WA,01597822297,204,,,,,,,,,,,52.2395591,-3.37244
6662075,PRESTEIGNE C.P. SCHOOL,666,Powys,Primary,Community,EM,English medium,"Nursery, Infants & Juniors",---,Slough Road,Presteigne,Powys,,LD8 2NH,01544267422,169,,,,,,,,,,,52.2702331,-3.0157866
6662076,RADNOR VALLEY C.P. SCHOOL,666,Powys,Primary,Community,EM,English medium,"Nursery, Infants & Juniors",---,New Radnor,Presteigne,Powys,,LD8 2SS,01544350203,49,,,,,,,,,,,52.2394729,-3.1510836
6662077,CROSSGATES C.P. SCHOOL,666,Powys,Primary,Community,EM,English medium,"Nursery, Infants & Juniors",---,Crossgates,Llandrindod Wells,Powys,,LD1 6RE,01597851667,151,,,,,,,,,,,52.2756012,-3.3356592
6662084,YSGOL DOLAFON,666,Powys,Primary,Community,EM,English medium,"Nursery, Infants & Juniors",---,Llanwrtyd Wells,Powys,,,LD5 4RA,01591610326,52,,,,,,,,,,,52.1073624,-3.6418918
6662089,BUILTH WELLS C.P. SCHOOL,666,Powys,Primary,Community,DS,Dual Stream,"Nursery, Infants & Juniors",---,Hospital Road,Builth Wells,Powys,,LD2 3GA,01982553600,210,,,,,,,,,,,52.14711879999999,-3.4088687
6662092,SENNYBRIDGE C.P. SCHOOL,666,Powys,Primary,Community,DS,Dual Stream,"Nursery, Infants & Juniors",---,Sennybridge,,,Brecon,LD3 8RS,01874636268,107,,,,,,,,,,,51.9445821,-3.5695076
6662113,CRICKHOWELL C.P. SCHOOL,666,Powys,Primary,Community,EM,English medium,"Nursery, Infants & Juniors",---,Crickhowell,Powys,,,NP8 1DY,01873810300,221,,,,,,,,,,,51.8642352,-3.1399859
6662116,HAY-ON-WYE C.P. SCHOOL,666,Powys,Primary,Community,EM,English medium,"Nursery, Infants & Juniors",---,Oxford Road,Hay-On-Wye,Powys,,HR3 5BT,01497820339,186,,,,,,,,,,,52.0722488,-3.1264256
6662117,LLANGYNIDR C.P. SCHOOL,666,Powys,Primary,Community,EM,English medium,"Nursery, Infants & Juniors",---,Llangynidr,Crickhowell,Powys,,NP8 1NY,01874730681,101,,,,,,,,,,,51.8665606,-3.229719
6662125,LLANFAES C.P. SCHOOL,666,Powys,Primary,Community,EM,English medium,"Nursery, Infants & Juniors",---,Beilihelig Road,Llanfaes,Brecon,Powys,LD3 8EB,01874623326,190,,,,,,,,,,,51.9448929,-3.400517
6662127,YSGOL Y BANNAU,666,Powys,Primary,Community,WM,Welsh medium,"Nursery, Infants & Juniors",---,Penlan,Aberhonddu,Powys,,LD3 9SR,01874622207,97,,,,,,,,,,,51.9524877,-3.3792283
6662129,YSGOL RHIW BECHAN,666,Powys,Primary,Community,DS,Dual Stream,"Nursery, Infants & Juniors",---,Tregynon,Powys,,,SY16 3EH,01686650303,144,,,,,,,,,,,52.5784199,-3.3336077
6662146,LLANRHAEADR YM MOCHNANT C.P. SCHOOL,666,Powys,Primary,Community,DS,Dual Stream,"Nursery, Infants & Juniors",---,Llanrhaeadr Ym Mochnant,Oswestry,Salop,,SY10 0LG,01691780352,84,,,,,,,,,,,52.8222122,-3.2946005
6662147,YSGOL BRO CYNLLAITH,666,Powys,Primary,Community,EM,English medium,"Nursery, Infants & Juniors",---,Llansilin,Oswestry,Salop,,SY10 7QB,01691791365,25,,,,,,,,,,,52.8440028,-3.1744492
6662148,YSGOL DAFYDD LLWYD,666,Powys,Primary,Community,WM,Welsh medium,"Nursery, Infants & Juniors",---,Plantation Lane,Newtown,Powys,,SY16 1JE,01686622162,195,,,,,,,,,,,52.5081946,-3.3191606
6662149,YSGOL Y CRIBARTH,666,Powys,Primary,Community,DS,Dual Stream,"Nursery, Infants & Juniors",---,School Road,Abercrave,Swansea,,SA9 1XD,01639731500,117,,,,,,,,,,,51.8007848,-3.7180221
6662150,YSGOL GOLWG Y CWM,666,Powys,Primary,Community,EM,English medium,"Nursery, Infants & Juniors",---,Hendreladus,Ystradgynlais,Powys,,SA9 1SE,01639846070,176,,,,,,,,,,,51.7829306,-3.7455898
6662151,YSGOL BRO TAWE,666,Powys,Primary,Community,EM,English medium,"Nursery, Infants & Juniors",---,Ffordd yr Afon,Ystradgynlais,Swansea,,SA9 1BU,01639846000,207,,,,,,,,,,,51.765994,-3.7711795
6662152,YSGOL GYMRAEG DYFFRYN Y GLOWYR,666,Powys,Primary,Community,WM,Welsh medium,"Nursery, Infants & Juniors",---,Bethel Road,Lower Cwmtwrch,Swansea,,SA9 2PT,01639846060,344,,,,,,,,,,,51.77433869999999,-3.7800564
6662153,YSGOL Y MYNYDD DU ,666,Powys,Primary,Community,EM,English medium,"Nursery, Infants & Juniors",---,School Road,Talgarth,Powys,,LD3 0DQ,01874712860,106,,,,,,,,,,,52.001269,-3.2324511
6662154,YSGOL GYMRAEG Y TRALLWNG,666,Powys,Primary,Community,WM,Welsh medium,"Nursery, Infants & Juniors",---,YSGOL GYMRAEG Y TRALLWNG,HOWELL DRIVE,WELSHPOOL,POWYS,SY21 7AT,01938552005,96,,,,,,,,,,,52.6557021,-3.143012
6662155,YSGOL CALON Y DDERWEN,666,Powys,Primary,Community,EM,English medium,"Nursery, Infants & Juniors",Not available,Ysgol Calon y Dderwen,Park Street,Newton,,SY16 1EG,01686626303,250,,,,,,,,,,,52.5121505,-3.3189517
6662156,Ysgol Golwg Pen y Fan,666,Powys,Primary,Not Applicable,EM,English medium,Infants & Juniors,Not available,Ysgol Golwg Pen y Fan,,,Brecon,LD3 7LU,,,,,,,,,,,,,51.9496428,-3.3899239
6663000,LLANFECHAIN C.I.W. SCHOOL,666,Powys,Primary,Community,EM,English medium,"Nursery, Infants & Juniors",Church in Wales,Llanfechain,Powys,,,SY22 6UQ,01691828537,43,,,,,,,,,,,52.7743434,-3.2040823
6663002,MONTGOMERY C.I.W. SCHOOL,666,Powys,Primary,Community,EM,English medium,"Nursery, Infants & Juniors",Church in Wales,Montgomery,Powys,,,SY15 6QA,01686668387,105,,,,,,,,,,,52.5623497,-3.1458304
6663016,FORDEN C.I.W. SCHOOL,666,Powys,Primary,Community,EM,English medium,"Nursery, Infants & Juniors",Church in Wales,Forden,Welshpool,Powys,,SY21 8NE,01938580334,69,,,,,,,,,,,52.6018972,-3.140329
6663021,LLANDYSILIO C.I.W. SCHOOL,666,Powys,Primary,Community,EM,English medium,"Nursery, Infants & Juniors",Church in Wales,Four Crosses,Llanymynech,Powys,,SY22 6RB,01691830339,56,,,,,,,,,,,52.7624546,-3.0840543
6663026,GLADESTRY C.I.W. SCHOOL,666,Powys,Primary,Voluntary controlled,EM,English medium,"Nursery, Infants & Juniors",Church in Wales,Gladestry,Kington,Herefordshire,,HR5 3NR,01544370207,35,,,,,,,,,,,52.18945240000001,-3.1235869
6663030,YSGOL TREFONNEN CHURCH IN WALES COMMUNITY PRIMARY,666,Powys,Primary,Voluntary controlled,DS,Dual Stream,"Nursery, Infants & Juniors",Church in Wales,Trefonnen Lane,Llandrindod Wells,Powys,,LD1 5EB,01597822190,208,,,,,,,,,,,52.2472615,-3.3751905
6663031,NEWBRIDGE-ON-WYE CHURCH IN WALES SCHOOL,666,Powys,Primary,Community,EM,English medium,"Nursery, Infants & Juniors",Church in Wales,Newbridge on Wye,Llandrindod Wells,Powys,,LD1 6LD,01597860273,108,,,,,,,,,,,52.21208910000001,-3.4395749
6663033,CLYRO C.I.W. SCHOOL,666,Powys,Primary,Voluntary controlled,EM,English medium,"Nursery, Infants & Juniors",Church in Wales,Clyro,Via Hereford,,,HR3 5LE,01497820860,67,,,,,,,,,,,52.0833869,-3.1518858
6663035,KNIGHTON CHURCH IN WALES PRIMARY SCHOOL,666,Powys,Primary,Community,EM,English medium,"Nursery, Infants & Juniors",Church in Wales,Knighton,Powys,,,LD7 1HP,01547528691,179,,,,,,,,,,,52.3413658,-3.0431842
6663036,RHAYADER C.I.W. SCHOOL,666,Powys,Primary,Community,DS,Dual Stream,"Nursery, Infants & Juniors",Church in Wales,Bryntirion,Rhayader,Powys,,LD6 5LT,01597810288,240,,,,,,,,,,,52.3004405,-3.5104637
6663037,LLANELWEDD CHURCH IN WALES PRIMARY SCHOOL,666,Powys,Primary,Voluntary controlled,EM,English medium,"Nursery, Infants & Juniors",Church in Wales,Llanelwedd,Builth Wells,Powys,,LD2 3TY,01982552616,93,,,,,,,,,,,52.155868,-3.396251
6663050,LLANGORS C.I.W. SCHOOL,666,Powys,Primary,Community,EM,English medium,"Nursery, Infants & Juniors",Church in Wales,Llangorse,Brecon,Powys,,LD3 7TR,01874658663,141,,,,,,,,,,,51.94105279999999,-3.2630222
6663051,WELSHPOOL CHURCH IN WALES PRIMARY SCHOOL,666,Powys,Primary,Voluntary controlled,EM,English medium,"Nursery, Infants & Juniors",Church in Wales,Severn Road,Welshpool,Powys,,SY21 7AT,01938538660,273,,,,,,,,,,,52.6649693,-3.1318815
6663301,ST. MICHAEL'S C.I.W. SCHOOL,666,Powys,Primary,Voluntary aided,EM,English medium,"Nursery, Infants & Juniors",Church in Wales,Kerry,Newtown,Powys,,SY16 4NP,01686670208,87,,,,,,,,,,,52.50135059999999,-3.2560167
6663303,LLANSANTFFRAID C.I.W.A.,666,Powys,Primary,Community,EM,English medium,"Nursery, Infants & Juniors",Church in Wales,Treflan,Llansantffraid,Powys,,SY22 6AE,01691828539,103,,,,,,,,,,,52.7745822,-3.1543725
6663317,ARCHDEACON GRIFFITHS C.I.W. PRIMARY SCHOOL,666,Powys,Primary,Voluntary aided,EM,English medium,"Nursery, Infants & Juniors",Church in Wales,Llyswen,Brecon,Powys,,LD3 0YB,01874754334,130,,,,,,,,,,,52.0376847,-3.2722993
6663318,PRIORY CHURCH IN WALES SCHOOL,666,Powys,Primary,Voluntary aided,EM,English medium,"Nursery, Infants & Juniors",Church in Wales,Pendre Close,Brecon,Powys,,LD3 9EU,01874623549,157,,,,,,,,,,,51.9522561,-3.3911028
6663320,ST MARY`S R.C. (A) SCHOOL,666,Powys,Primary,Voluntary aided,EM,English medium,"Nursery, Infants & Juniors",Roman Catholic,Milford Road,Newtown,Powys,,SY16 2EH,01686625582,61,,,,,,,,,,,52.515645,-3.323442
6663322,LLANGATTOCK C.I.W. SCHOOL,666,Powys,Primary,Voluntary aided,EM,English medium,"Nursery, Infants & Juniors",Church in Wales,Llangattock,Crickhowell,Powys,,NP8 1PH,01873810608,96,,,,,,,,,,,51.8499875,-3.1483406
6663323,YSGOL CWM BANWY,666,Powys,Primary,Community,WM,Welsh medium,"Nursery, Infants & Juniors",Not available,Llangadfan School,,Banwy C P School,Llangadfan Welshpool,SY21 0NW,01938820226,41,,,,,,,,,,,52.6917816,-3.4719712
6664002,LLANIDLOES HIGH SCHOOL,666,Powys,Secondary,Community,EW,English with significant Welsh,Secondary (ages 11-19),---,Llanidloes,Powys,,,SY18 6EX,01686412289,712,,,,,,,,,,,52.4417904,-3.5453135
6664011,Newtown High School,666,Powys,Secondary,Community,EM,English medium,Secondary (ages 11-19),---,Dolfor Road,Newtown,Powys,,SY16 1JE,01686626304,934,,,,,,,,,,,52.5072596,-3.3214352
6664013,WELSHPOOL HIGH SCHOOL,666,Powys,Secondary,Community,EM,English medium,Secondary (ages 11-19),---,Salop Road,Welshpool,Powys,,SY21 7RE,01938552014,789,,,,,,,,,,,52.6655738,-3.1367672
6664021,Ysgol Maesydderwen,666,Powys,Secondary,Community,EM,English medium,Secondary (ages 11-19),---,Tudor Street,Ystradgynlais,Swansea,,SA9 1AP,01639842115,542,,,,,,,,,,,51.7692483,-3.7680112
6664022,BRECON HIGH SCHOOL,666,Powys,Secondary,Community,EW,English with significant Welsh,Secondary (ages 11-19),---,Penlan,Brecon,Powys,,LD3 9SR,01874622361,556,,,,,,,,,,,51.9517257,-3.3837826
6664023,Gwernyfed High School,666,Powys,Secondary,Community,EM,English medium,Secondary (ages 11-19),---,Three Cocks,Brecon,Powys,,LD3 0SG,01497847445,502,,,,,,,,,,,52.0283764,-3.2025147
6664024,Crickhowell High School,666,Powys,Secondary,Community,EM,English medium,Secondary (ages 11-19),---,New Road,Crickhowell,Powys,,NP8 1AW,01873813500,931,,,,,,,,,,,51.861177,-3.140957
6664025,Ysgol Calon Cymru,666,Powys,Secondary,Community,CB,Bilingual (Type C),Secondary (ages 11-19),---,College Road,,Builth Wells,Powys,LD2 3BW,01982553292,976,,,,,,,,,,,52.1508622,-3.4072926
6665500,Ysgol Bro Hyddgen,666,Powys,Middle,Community,AB,Bilingual (Type A),Middle (ages 4-19),---,Machynlleth,Powys,,,SY20 8DR,01654704200,424,,,,,,,,,,,52.5897097,-3.8545988
6665501,Ysgol Llanfyllin,666,Powys,Middle,Community,EW,English with significant Welsh,Middle (ages 4-19),Not available,Llanfyllin High School,,Llanfyllin School,Llanfyllin,SY22 5BJ,01691648391,791,,,,,,,,,,,52.7637446,-3.2720178
6665502,Ysgol Bro Caereinion,666,Powys,Middle,Community,BB,Bilingual (Type B),Middle (ages 4-19),Not available,Llanfair Caereinion,Welshpool,Powys,,SY21 0HW,01938810888,547,,,,,,,,,,,52.6500609,-3.3277384
6667001,BRYNLLYWARCH HALL SCHOOL,666,Powys,Special,Not Applicable,0 ,Not available,Special (with post-16 provision),---,Kerry,Nr Newtown,Powys,,SY16 4PB,01686670276,71,,,,,,,,,,,52.4950844,-3.2524757
6667002,YSGOL CEDEWAIN,666,Powys,Special,Not Applicable,0 ,Not available,Special (with post-16 provision),---,Maesyrhandir,Newtown,Powys,,SY16 1LH,01686627454,106,,,,,,,,,,,52.5053202,-3.3199822
6667004,YSGOL PENMAES,666,Powys,Special,Not Applicable,0 ,Not available,Special (with post-16 provision),---,Canal Road,Brecon,Powys,,LD3 7HL,01874623508,111,,,,,,,,,,,51.943523,-3.388611
6672281,YSGOL GYMUNEDOL GYNRADD ABERAERON,667,Ceredigion,Primary,Community,WM,Welsh medium,"Nursery, Infants & Juniors",---,Maes yr Heli,Aberaeron,Ceredigion,,SA46 0BQ,01545570313,231,,,,,,,,,,,52.2408297,-4.2642859
6672291,YSGOL GYMUNEDOL LLANARTH,667,Ceredigion,Primary,Community,WM,Welsh medium,Infants & Juniors,---,Llannarth,Ceredigion,,,SA47 0PA,01545580343,66,,,,,,,,,,,52.2189685,-4.168720899999999
6672293,YSGOL GYMUNEDOL LLANNON,667,Ceredigion,Primary,Community,WM,Welsh medium,Infants & Juniors,---,Llannon,Aberystwyth,Ceredigion,,SY23 5HX,01974202478,42,,,,,,,,,,,52.2812018,-4.1753637
6672295,YSGOL GYMUNEDOL CEI NEWYDD,667,Ceredigion,Primary,Community,EW,English with significant Welsh,Infants & Juniors,---,Maes Yr Ysgol,Cei Newydd,Ceredigion,,SA45 9TE,01545560363,79,,,,,,,,,,,52.2110862,-4.3587207
6672298,YSGOL GYMUNEDOL TALGARREG,667,Ceredigion,Primary,Community,WM,Welsh medium,Infants & Juniors,---,Talgarreg,Llandysul,Ceredigion,,SA44 4ER,01545590683,36,,,,,,,,,,,52.0417205,-4.3144006
6672299,YSGOL GYMRAEG ABERYSTWYTH,667,Ceredigion,Primary,Community,WM,Welsh medium,"Nursery, Infants & Juniors",---,Plascrug Avenue,Aberystwyth,Ceredigion,,SY23 1HL,01970617613,375,,,,,,,,,,,52.4101997,-4.0712398
6672303,YSGOL GYMUNEDOL COMINS COCH,667,Ceredigion,Primary,Community,EW,English with significant Welsh,Infants & Juniors,---,Comins Coch,Aberystwyth,Ceredigion,,SY23 3BQ,01970623497,139,,,,,,,,,,,52.4211284,-4.0393742
6672308,YSGOL GYMUNEDOL LLANFARIAN,667,Ceredigion,Primary,Community,WM,Welsh medium,Infants & Juniors,---,Llanfarian,Aberystwyth,Ceredigion,,SY23 4DN,01970612664,36,,,,,,,,,,,52.41014680000001,-4.0747474
6672309,YSGOL GYMUNEDOL LLANFIHANGEL-Y-CREUDDYN,667,Ceredigion,Primary,Community,WM,Welsh medium,Infants & Juniors,---,Llanfihangel-Y-Creuddyn,Aberystwyth,Ceredigion,,SY23 4LA,01974261347,19,,,,,,,,,,,52.41014680000001,-4.0747474
6672310,YSGOL GYMUNEDOL LLANGWYRYFON,667,Ceredigion,Primary,Community,WM,Welsh medium,Infants & Juniors,---,Llangwyryfon,Aberystwyth,Ceredigion,,SY23 4HA,01974241319,30,,,,,,,,,,,52.31536389999999,-4.0560556
6672311,YSGOL LLANILAR,667,Ceredigion,Primary,Community,WM,Welsh medium,Infants & Juniors,---,Llanilar,Aberystwyth,Ceredigion,,SY23 4PA,01974241334,110,,,,,,,,,,,52.3579186,-4.022079
